"title","longitude","latitude","refnum","has_location"
"Ackerville Baptist Church of Christ",-87.06821507099991,32.03164,87200001,0
"Adams Grove Presbyterian Church",-87.0308048439999,32.2724058420001,86001239,0
"Aderholdt&amp;apos;s Mill",-85.7699059169999,33.778012833,88003077,0
"Agee House",-86.7983093259999,33.498416901,86001962,0
"Age-Herald Building",-86.8065490719999,33.5188369750001,84000620,0
"Airmount Grave Shelter",-87.6691993899999,31.9690056240001,00000142,0
"Alabama Agricultural and Mechanical University Historic District",-86.57154655399999,34.7787494490001,01001407,0
"Alabama Builders&amp;apos; Hardware Manufacturing Company",-85.71250152599991,34.444099426,86000999,0
"Alabama Builder&amp;apos;s Hardware Manufacturing Company Complex (Boundary Increase)",-85.71627458399991,34.4460936630001,92000637,0
"Alabama City Library",-86.0440673829999,34.0253028870001,74000410,0
"Alabama City Wall Street Historic District",-86.0451372229999,34.0296433650001,02000484,0
"Alabama Girls&amp;apos; Industrial School",-86.86588376899989,33.1028351670001,78000509,0
"Alabama Great Southern Railroad Passenger Depot",-85.71858841699991,34.4442603350001,71001070,0
"Alabama Insane, Hospital",-87.53841431699991,33.2169212520001,77000216,0
"Alabama Iron Works",-87.7775529149999,34.4663046080001,77000203,0
"Alabama Midland Railway Depot",-85.23738939099989,31.1829201310001,85002163,0
"Alabama Penny Savings Bank",-86.8098907469999,33.5150375370001,80004471,0
"Alabama State Capitol",-86.30093273799992,32.3776006260001,66000152,0
"Alabama State Penitentiary",-86.1919363349999,32.5518085860001,73000342,0
"Alabama State University Historic District",-86.2976129809999,32.3642490810001,98001228,0
"Alabama Theatre",-86.8095245359999,33.51503372200011,79000386,0
"Albany Heritage Neighborhood Historic District",-86.9777740269999,34.5999630810001,83002981,0
"Albertville Depot",-86.20617258899991,34.2665571060001,75000320,0
"Alexander City Commercial Historic District",-85.9537826169999,32.9455862560001,00000711,0
"Aliceville Elementary and High School",-88.14778900099989,33.1293640140001,80000734,0
"Allen Grove",-87.7751105479999,32.428936192,94000689,0
"Allen House",-87.73684588399991,30.302674401,88002809,0
"Alston-Cobb House",-87.7768402099999,31.709854126,79000382,0
"Altwood",-87.6745581229999,32.4239217520001,93000598,0
"Andalusia Commercial Historic District",-86.4808719779999,31.306467716,88003238,0
"Anderson Place Historic District",-86.7999282939999,33.4938706230001,86001981,0
"Anderson Place Historic District (Boundary Increase)",-86.8010167989999,33.488631937,91000592,0
"Anniston Cotton Manufacturing Company",-85.8330993649999,33.658443451,85002739,0
"Anniston Electric and Gas Company Plant, Old",-85.8317337039999,33.6480140690001,91000611,0
"Anniston Inn Kitchen",-85.8323059079999,33.663673401,73000332,0
"Anniston Transfer Company",-85.82837676999991,33.6559867860001,85002740,0
"Anthony, David Rinehart, House",-87.89008331299991,32.8403472900001,82002015,0
"Antique Store",-86.9226969399999,32.6587184090001,86003662,0
"Arlington",-86.8387527469999,33.50086975100001,70000103,0
"Arlington Park",-86.8367671339999,33.4994897730001,95000097,0
"Armistead, Peter F., Sr., House",-87.73944039299991,34.840650774,86001540,0
"Ash, John, House",-86.3021341099999,33.7712036240001,91001479,0
"Ashe Cottage",-87.84006500199992,32.5185852050001,78000502,0
"Ashland Place Historic District",-88.09439651299989,30.6906322340001,87000935,0
"Ashville Historic District",-86.25345237499991,33.8356297780001,05000288,0
"Askew, Wade, House",-88.08926391599989,30.6880931850001,91000858,0
"Athens Courthouse Square Commercial Historic District",-86.9710398899999,34.8028470420001,97001164,0
"Athens State College Historic District",-86.96658914999991,34.8057496260001,85000254,0
"Atlantic Coastline Railroad Passenger Depot",-85.39156000299991,31.2307950430001,93001519,0
"Auburn Players Theater",-85.4817275999999,32.6041107180001,73000351,0
"Auburn University Historic District",-85.4828646399999,32.6049707080001,76000338,0
"Audubon Place Historic District",-87.55892435599991,33.2106521530001,85001517,0
"Austin, Hiram B., House",-88.1041161089999,30.419830635,88000106,0
"Automotive Historic District",-86.8010371459999,33.5126784220001,91000661,0
"Avalon",-86.7799409239999,33.5051925070001,85000444,0
"Avandale Mill Historic District",-86.27835788899991,33.5925147,00001030,0
"Avant House",-86.44589233400001,31.317085266,96000046,0
"Ave Maria Grotto",-86.8160338899999,34.17456483300001,84000610,0
"Averiett, Benjamin H., House",-86.3712134299999,33.1398458840001,86002034,0
"Averiett, William, House",-86.3993324069999,33.134094567,86002038,0
"Avondale Historic District",-85.9410757239999,32.9400492390001,05000837,0
"Avondale Park Historic District",-86.7724319029999,33.5193217550001,98000106,0
"Azalea Court Apartments",-88.08231353799989,30.6780033110001,88000108,0
"Bagley--Cater Building",-85.82949829099989,33.6571235660001,85002864,0
"Ball, Parks E., House",-88.1945569469999,33.1571263660001,82002069,0
"Bama Theatre-City Hall Building",-87.5679626459999,33.2087554930001,84000746,0
"Bank of Andalusia",-86.48226928699999,31.3077507020001,88003239,0
"Bank of Anniston",-85.8297729489999,33.6572837830001,85002865,0
"Bank of Ensley",-86.8969421389999,33.5131454470001,84000623,0
"Bank of Fairhope",-87.90382385299991,30.5230274200001,88001008,0
"Bank Street Historic District",-86.9849155829999,34.6101455770001,80000731,0
"Bank Street-Old Decatur Historic District (Boundary Increase)",-86.9833884899999,34.6105151190001,85001067,0
"Bankhead House",-87.2824859619999,33.8378524780001,73000375,0
"Bankhead, James Greer, House",-88.12177499799991,33.904709407,75000316,0
"Barr&amp;apos;s Subdivision Historic District",-88.23923537100002,31.0919113140001,89002452,0
"Barton Academy",-88.0473327639999,30.6881980900001,70000107,0
"Barton Hall",-88.0033800479999,34.7525905200001,73000337,0
"Bass-Perry House",-85.1324240549999,32.3462244250001,76000355,0
"Battersea",-87.7031172169999,32.5103842970001,94000698,0
"Battle House Royale",-88.0410766599999,30.6927795410001,75000322,0
"Battle-Friedman House",-87.56635284399989,33.2049140930001,72000184,0
"Battles Wharf Historic District",-87.92726645099991,30.4938362350001,88000107,0
"Beal-Gaillard House",-88.13224029499992,30.6984539030001,84000078,0
"Beavers, Dr. James Alvis, House",-88.36162748300001,32.438935293,00001025,0
"Beck, William King, House",-87.3347065879999,32.0457683970001,93000421,0
"Beckers Block",-86.5866928099999,34.7314071660001,80000703,0
"Beckner House",-87.9047927859999,30.5220775600001,88001007,0
"Bell Building",-86.3107223509999,32.3767127990001,81000132,0
"Bell House",-86.47814178499991,32.471340179,99000150,0
"Belle Mina",-86.8804175709999,34.644951619,72000164,0
"Bellingrath Gardens and Home",-88.13947488299991,30.431590821,82001609,0
"Belmont",-87.6669635629999,34.6618532050001,82002003,0
"Belview Heights Historic District",-86.8910061419999,33.4907190700001,00000713,0
"Bermuda Hill",-87.6940916569999,32.530081791,94000692,0
"Bethea, Tristram, House",-87.35022064099989,32.05316940500011,85001501,0
"Bibb, James H., House",-86.7532730099999,34.69283676100011,84000651,0
"Big Spring",-86.5858684289999,34.7297062820001,80000704,0
"Birmingham Civil Rights Historic District",-86.8117307629999,33.5219583180001,06000940,0
"Birmingham, Railway, Light and Power Building",-86.80414298299991,33.51533515000011,80000688,0
"Birmingham--Southern College",-86.8518165819999,33.5129029030001,99000466,0
"Bishop Manor Estate",-88.25990084499991,30.4505420120001,85000255,0
"Black, Hugo, House",-85.8333114539999,33.262348934,73000334,0
"Blackburn House",-87.05444867799992,34.79226044600011,84000643,0
"Blackwell, W. S., House",-86.6246948239999,31.8313045500001,86001751,0
"Blessed Sacrament Academy",-86.8567504879999,33.489589691,80000689,0
"Blocton Italian Catholic Cemetery",-87.1136276189999,33.1128770370001,99000464,0
"Bloxham, Carl L., Building",-87.9051666259999,30.5230522160001,88001005,0
"Bluff Hall",-87.8400497439999,32.519615173,70000105,0
"Boligee Hill",-87.9888050429999,32.75975312700011,82002014,0
"Boll Weevil Monument",-85.85386484199999,31.3146001420001,73000336,0
"Borden Oaks",-87.6835602039999,32.7123936730001,94000685,0
"Boshell&amp;apos;s Mill",-87.4475243979999,33.854836257,75000329,0
"Bothwell, Dr. James J., House",-86.25449336999992,33.8352302250001,82004612,0
"Bottega Favorita",-86.79007130699991,33.5011512350001,86001952,0
"Bowen, William, Lustron House",-87.69069671599991,34.8136825560001,00000135,0
"Boxwood",-86.0963058469999,33.4365386960001,83002983,0
"Bradshaw House",-86.7919464109999,33.5001144410001,80000690,0
"Bragg-Mitchell House",-88.0861053469999,30.6917457580001,72000168,0
"Brame House",-86.3035888669999,32.373428345,80000728,0
"Brantley Historic District",-86.25723186699992,31.5838782740001,04000558,0
"Braune, Gustave, House",-87.88786315899991,32.8418502810001,82002016,0
"Bray-Barron House",-85.14441118799991,31.89738696100011,71000093,0
"Brewton Historic Commercial District",-87.07168516099991,31.1039385390001,82002013,0
"Bride&amp;apos;s Hill",-87.24450005399991,34.6704392980001,86001544,0
"Bridgeport Historic District",-85.7101314989999,34.950762464,02000479,0
"Brierfield Furnace",-86.92931226499989,33.0449949030001,74000401,0
"Brisk &amp; Jacobson Store",-88.0400924679999,30.692520142,73000361,0
"Brittan, Patrick Henry, House",-86.30260467499991,32.3820343020001,79000393,0
"Brodbeck--Zundel Historic District",-87.91909057299991,30.4742591630001,88000520,0
"Brooks-Hughes House",-85.00653839099991,32.4604034420001,83003477,0
"Brown Chapel African Methodist Episcopal Church",-87.0160522459999,32.4118690490001,82002009,0
"Brown, Dr. A. M., House",-86.83112335199991,33.5098876950001,74000413,0
"Brown-Proctor House",-86.03722381599989,34.672718048,82002036,0
"Brownville-Summerville Historic District",-85.0045938869999,32.4778458250001,83003479,0
"Brunell House",-87.7765808109999,30.400543213,95001019,0
"Buell--Stallings--Stewart House",-86.62462615999991,31.8312606810001,86001752,0
"Building 800--Austin Hall",-86.3508931169999,32.378048161,87002178,0
"Building 836--Community College of the Air Force Building",-86.352046991,32.380219153,87002182,0
"Building at 105 N. Washington Street",-86.5853674509999,34.7315983170001,84000653,0
"Building at 305 Jefferson",-86.5880889889999,34.733188629,03001134,0
"Buildings at 104--128 S. Side Sq.",-86.5849404519999,34.7296129460001,80004472,0
"Buildings at 104--128 S. Side Sq.",-86.58433835199992,34.7298814270001,80004472,0
"Bullock County Courthouse Historic District",-85.7159826389999,32.1456834560001,76000312,0
"Burritt, William, Mansion",-86.5399856569999,34.71641922,92000627,0
"Burton, Robert Wilton, House",-85.4772567749999,32.6065597530001,80000701,0
"Bush House",-87.7750015259999,31.7146873470001,99000885,0
"Butler Chapel A.M.E. Zion Church",-86.62518310499991,31.8250427250001,86001755,0
"Butler Chapel African Methodist Episcopal Zion Church",-85.6997451779999,32.419700623,95001022,0
"Butler, Charles, House",-86.35720468399991,33.2772375420001,96000054,0
"Butlers&amp;apos; Store",-86.3943023679999,34.536670685,92001089,0
"Buzzard Roost",-88.0231964229999,34.7603789130001,76000157,0
"Byler Road",-87.5973965879999,33.387766458,74000438,0
"Cahaba",-87.1044691539999,32.3215331820001,73000341,0
"Cahaba Homestead Village Historic District",-86.60759723999991,33.629677809,06000187,0
"Caldwell Building",-85.8297729489999,33.6572418210001,82001997,0
"Caldwell-Milner Building",-86.8053207399999,33.514568329,79000387,0
"Calera Downtown Historic District",-86.75239410099989,33.1004965320001,06000188,0
"Calhoun County Courthouse",-85.8305129999999,33.6584625240001,85002866,0
"Calhoun School Principal&amp;apos;s House",-86.54945092699991,32.0579317120001,76000340,0
"Campground, The",-88.0663006909999,30.6962977530001,05000648,0
"Canaan Baptist Church",-86.96376800499992,33.4019966130001,05000290,0
"Caplewood Drive Historic District",-87.5560749199999,33.2131093230001,85001159,0
"Captain Adams House",-87.9116210939999,30.589775085,88002810,0
"Carlen House",-88.0847549439999,30.68370437600001,81000131,0
"Carlowville Historic District",-87.02912182899991,32.0892045910001,78000487,0
"Carolina Hall",-88.1452865599999,30.6906147000001,73000362,0
"Carpenter, Capt. Nathan, House",-87.9700629859999,32.9016058830001,99000793,0
"Carson Place",-87.58303832999989,33.2054824830001,85000448,0
"Carter, Clyde, House",-87.52667603099989,34.7908445890001,04000559,0
"Cassimus House",-86.2966842649999,32.378196716,76000349,0
"Cato House",-85.1555252079999,31.8919677730001,71000094,0
"Cavellero House",-88.04493713399999,30.691055298,82001610,0
"Cedar Crest",-87.66033800299989,32.428327165,93000763,0
"Cedar Grove Plantation",-87.5753888979999,32.4475346300001,93000599,0
"Cedar Haven",-87.58882084199991,32.415682405,93000600,0
"Center-Gaillard House",-88.1344375609999,30.701385498,84000081,0
"Central Core Historic District",-88.22186724199992,31.0913824040001,89002424,0
"Central of Georgia Depot",-86.4804595799999,31.3069352270001,84000606,0
"Centreville Historic District",-87.1368734049999,32.9448582840001,78000482,0
"Chambers County Courthouse Square Historic District",-85.4015047459999,32.8989833430001,80000682,0
"Chambers--Robinson House",-87.6972013289999,34.7667399410001,93000419,0
"Chancellor House",-86.3986407309999,33.2949252820001,01001168,0
"Chapel and Lovelace Hall, Marion Military Institute",-87.32188510099991,32.6238246020001,78000508,0
"Cherokee Plantation",-85.6753463749999,34.488601685,84000384,0
"Cherry Street Historic District",-87.6719856239999,34.806450887,97000648,0
"Chestnut Hill Historic District",-86.7801003229999,33.5102798780001,87000940,0
"Chickasaw Shipyard Village Historic District",-88.06550453599991,30.767260331,04000924,0
"Christian Church and Parsonage",-86.92483124999991,32.6569155230001,86003664,0
"Christian, John and Archibald, House",-87.70378231699991,34.718097061,82002004,0
"Church of the Visitation",-86.5874252319999,34.7323837280001,80000705,0
"Church Street East Historic District",-88.04572468299992,30.6879112890001,71000102,0
"Church Street East Historic District (Boundary Increase)",-88.04036920599991,30.6908687210001,05000289,0
"Church Street Historic District (Boundary Increase)",-88.0419588419999,30.6833398290001,84000663,0
"Citronelle Railroad Historic District",-88.2287595249999,31.0860208760001,89002421,0
"City National Bank",-87.56609344499989,33.2104873660001,85000449,0
"City of St. Jude Historic District",-86.3270536739999,32.35297991500001,90000916,0
"Claridge Manor Apartments",-86.7857284549999,33.504581451,84000625,0
"Clark, Willis G., House",-88.2094454459999,31.0028468470001,89002454,0
"Clarke Mills",-87.8978118899999,31.5102939610001,98000411,0
"Clarkson Bridge",-86.99110998399991,34.2075304050001,74000408,0
"Clay County Courthouse",-85.83580396799989,33.2743499110001,76000316,0
"Claybank Log Church",-85.66136575899991,31.446888593,76000321,0
"Clayton, Henry D., House",-85.4509345309999,31.8654746450001,76002259,0
"Cleburne County Courthouse",-85.5881460129999,33.6496660800001,76000317,0
"Clemens House",-86.5885467529999,34.7302169800001,74000419,0
"Cleveland Court Apartments 620--638",-86.3174108949999,32.3633474370001,01001167,0
"Cleveland, Stephen Beech, House",-87.6878090029999,31.610106504,99000886,0
"Cleveland, U. J., House",-88.05695342999989,30.676496506,93000420,0
"Cloverdale Historic District",-86.2950572469999,32.355276916,85002161,0
"Coate, John A., House",-87.7747248709999,31.704790711,99000887,0
"Cobb House",-87.8018739879999,31.70805119,99000888,0
"Cockrell, Samuel W., House",-87.8902893069999,32.8363952640001,82001618,0
"Coffee County Courthouse",-86.0622170649999,31.4126752210001,73000335,0
"Coffee High School",-87.6760787959999,34.8064079280001,82002045,0
"Coffin Shop",-88.1583404539999,32.8218612670001,85002930,0
"Colbert County Courthouse Square Historic District",-87.70275429899992,34.7334149710001,73000338,0
"Coldwater Creek Covered Bridge",-85.9130992249999,33.5861204430001,73000333,0
"Coleman, John, House",-87.9087905879999,32.8586692810001,82001617,0
"Coleman-Banks House",-87.88769531299991,32.8443908690001,70000102,0
"Coley Building",-88.0404281619999,30.693496704,82001611,0
"Coley, A. J. and Emma E. Thomas, House",-85.94815826399992,32.9472198490001,90002109,0
"Colgin Hill",-88.15538098499991,32.8092546300001,85002924,0
"College Hill Historic District",-86.02927178099991,34.6698314750001,83002970,0
"College Place Historic District",-87.6807795239999,34.812245379,94001547,0
"College Place Historic District (Boundary Increase)",-87.68021000099991,34.8134569140001,98001030,0
"College Place Historic District (Boundary Increase)",-87.68030747500001,34.8120135630001,98001030,0
"College Street Historic District",-85.9751973959999,31.8100217950001,76000352,0
"Collier-Overby House",-87.5622595829999,33.2070020900001,71000107,0
"Collins-Marston House",-88.1516189579999,30.693496704,84000083,0
"Collins-Robinson House",-88.15243530299991,30.6945953370001,84000087,0
"Collinsville Historic District",-85.8631302269999,34.262069565,06000181,0
"Columbiana City Hall",-86.6071063659999,33.1769838480001,74000437,0
"Commerce Street Residential Historic District",-86.62184113000001,31.8295907090001,86001967,0
"Commercial Hotel--Hart Hotel",-87.25920000000001,31,86001160,0
"Common Street District",-88.0576213239999,30.68742697600001,82002058,0
"Company E of the 167th Infantry of the Alabama National Guard Armory",-86.3028159899999,34.34930135800001,05000842,0
"Confederate Park",-86.6229623309999,31.82933239700011,86001791,0
"Confederate Park",-87.8380505829999,32.5178388290001,75000319,0
"Continental Gin Company",-86.76423562699991,33.527829979,80000691,0
"Convent and Academy of the Visitation",-88.09398516099992,30.6939651520001,91000844,0
"Convent of Mercy",-88.05287933299989,30.68918800400011,91000845,0
"Cooper, Davis C., House",-85.8343734739999,33.617233276,05000835,0
"Coosa County Jail",-86.2202772009999,32.8903726670001,74000407,0
"Corner, B.B., Memorial Library",-86.2507019039999,33.176818848,05000972,0
"Cornwall Furnace",-85.6016411709999,34.2434309060001,72000158,0
"Cotaco Opera House",-86.9859421039999,34.60280499,86000914,0
"Cottage Hill Historic District",-86.31801511399991,32.3748886390001,76000350,0
"Coulter, George, House",-87.67536163299991,34.7966880800001,82002046,0
"Country Club Historic District",-86.7787396369999,33.50762567600011,03001133,0
"County Line Baptist Church",-85.58982812699991,32.9179806230001,82002001,0
"Court Square Historic District",-86.3088010589999,32.377373376,82002062,0
"Court Square-Dexter Avenue Historic District (Boundary Increase)",-86.3082088689999,32.3769641810001,84000697,0
"Courtland Historic District",-87.3078820969999,34.6669139800001,91000597,0
"Courtland Historic District (Boundary Increase)",-87.3085602369999,34.6673000360001,98000710,0
"Courtview",-87.67948119399991,34.8059223170001,74000415,0
"Covington County Courthouse and Jail",-86.4821305519999,31.308836737,88003240,0
"Crane Hill Masonic Lodge",-87.05285644499992,34.0968399050001,01001294,0
"Creekwood",-85.47946876199991,32.300175816,89000310,0
"Crittenden Building",-86.8080673219999,33.515762329,81000126,0
"Crowan Cottage",-85.8217391969999,33.6625595090001,75000307,0
"Cuba Plantation",-87.6519958119999,32.4411894400001,93000601,0
"Cullars Rotation",-85.4836715699999,32.58869995,03000231,0
"Cullman Downtown Commercial Historic District",-86.84054424199989,34.1755460900001,85000738,0
"Cullman Historic District",-86.8376629519999,34.17289081600011,84000615,0
"Cullom Street--Twelfth Street South Historic District",-86.8071547749999,33.4925110880001,86001890,0
"Cullum, George W., House",-87.9085006709999,30.6047496800001,90000930,0
"Curry, J. L. M., House",-86.04448927199989,33.4560660480001,66000154,0
"Curtis House",-87.8386840819999,32.5206832890001,77000214,0
"Dahm House",-88.0457153319999,30.6907787320001,84000665,0
"Dallas County Courthouse",-87.02557372999992,32.4053153990001,75000310,0
"Dallas Mill",-86.5802091229999,34.7472355290001,78000496,0
"Dancy, Col. Francis, House",-86.9851837159999,34.6142768860001,80000732,0
"Daniel Pratt Historic District",-86.4722980569999,32.4616358850001,84000596,0
"Darby, E. H., Lustron House",-87.6888351439999,34.7919807430001,00000127,0
"Davidson--Smitherman House",-87.13373589999991,32.9429132550001,87001552,0
"Davis Avenue Branch, Mobile Public Library",-88.05263358499991,30.6953716120001,83003459,0
"Davis, Attoway R., Home",-87.8928222659999,32.8422241210001,82002017,0
"Davis, Jefferson, Hotel",-86.31256866499992,32.3754882810001,75000324,0
"Davis--Oak Grove District",-88.18700034299991,30.861465894,88000445,0
"De Tonti Square Historic District",-88.0472633239999,30.6960105460001,72000169,0
"Dellet Plantation",-87.5386852819999,31.5641051900001,93001517,0
"Demopolis Historic Business District",-87.83911260399989,32.5175521070001,79000391,0
"Demopolis Public School",-87.8387832639999,32.5111694340001,83003453,0
"Denby House",-88.04867553699999,30.6889038090001,84000668,0
"Dexter Avenue Baptist Church",-86.30314636200001,32.37747192400011,74000431,0
"D&amp;apos;Iberville Apartments",-88.08822631799991,30.6915988920001,04000925,0
"Dickenson House",-86.61802673299989,31.82467460600011,86001794,0
"Dickinson House",-87.77487945599999,31.7098350520001,78000485,0
"Doctor&amp;apos;s Office",-86.9232312959999,32.6573656,86003663,0
"Domestic Science Building",-86.56917326600001,34.785369098,73000358,0
"Donegan Block",-86.5855897359999,34.7308325600001,80000706,0
"Donnell, Robert, House",-86.9691467289999,34.7969436650001,73000354,0
"Dothan Municipal Light and Water Plant",-85.3891372679999,31.2251682280001,90001315,0
"Dothan Opera House",-85.3908615109999,31.2235279080001,77000204,0
"Dowe Historic District",-86.3039229899999,32.375812963,88003076,0
"Dowling, Samuel Lawson, House",-85.6420822139999,31.45673942600011,96000594,0
"Downtown Anniston Historic District",-85.8311883569999,33.6590212340001,91000663,0
"Downtown Bessemer Historic District",-86.95147849899992,33.4023817620001,92000852,0
"Downtown Birmingham Historic District",-86.8044087899999,33.5168418520001,82002039,0
"Downtown Birmingham Historic District (Boundary Increase II)",-86.8034882449999,33.5191674650001,98000105,0
"Downtown Birmingham Historic District (Boundary Increase)",-86.7975687159999,33.5178500840001,85000305,0
"Downtown Birmingham Historic District (Boundary Increase)",-86.8069424229999,33.515429741,85000305,0
"Downtown Birmingham Retail and Theatre Historic District",-86.80847408299989,33.51424152400011,89000315,0
"Downtown Birmingham Retail and Theatre Historic District (Boundary Increase)",-86.80801542399991,33.5171451430001,98000709,0
"Downtown Chevron Station",-86.58439636200002,34.7323455810001,80000707,0
"Downtown Florence Historic District",-87.6752905109999,34.8001383370001,95001021,0
"Downtown Florence Historic District (Boundary Increase)",-87.6752565649999,34.801337861,01001292,0
"Downtown Jacksonville Historic District",-85.75995973399991,33.813193465,86001044,0
"Downtown Tuscaloosa Historic District",-87.5672882279999,33.209766431,86001084,0
"Downtown Tuscaloosa Historic District (Boundary Increase II)",-87.5693427889999,33.2072404840001,96001029,0
"Downtown Tuscaloosa Historic District (Boundary Increase)",-87.5669237639999,33.2098222110001,88003242,0
"Dr. Pepper Syrup Plant",-86.7918167109999,33.5163116460001,90001317,0
"Drewry-Mitchell-Moorer House",-85.14597320599999,31.9003143310001,72000154,0
"Driskell--Martin House",-86.92402879499991,32.6600723590001,86003661,0
"Druid City Historic District",-87.5606356009999,33.20809181,75000327,0
"Druid City Historic District (Boundary Increase)",-87.5599226419999,33.2107108040001,01001170,0
"Druid City Historic District (Boundary Increase)",-87.5605543639999,33.208813772,01001170,0
"Dry Forks Plantation",-87.35986328199991,31.89931143900011,99000250,0
"Dunnavant&amp;apos;s Building",-86.5855290439999,34.7320497570001,80000708,0
"Easley Covered Bridge",-86.51830069799991,33.9710161090001,81000125,0
"East Anniston Residential Historic District",-85.82252068699999,33.6643141250001,93000418,0
"East Commerce Street Historic District",-86.6191458669999,31.8297270230001,86001966,0
"East End Baptist Church",-86.7921142579999,33.511074066,05000292,0
"East Northport Historic District",-87.5721953299999,33.2251319590001,04000234,0
"East Wetumpka Commercial Historic District",-86.20483535299989,32.5372231540001,92000055,0
"East Wetumpka Commercial Historic District (Boundary Increase)",-86.20599079999991,32.5366170460001,99000884,0
"Ebenezer Missionary Baptist Church",-85.4731140139999,32.6042289730001,75000317,0
"Eddins, Joel, House",-86.81367,34.981956,96001004,0
"Edgewood",-86.28706359899989,32.346946716,73000367,0
"Eleventh Street School",-86.01693725599991,34.0140876770001,84000616,0
"Ellicott Stone",-88.0005942409999,31.001575561,73000359,0
"Elliott, John W., House",-87.88786315899991,32.8418884280001,82002018,0
"Elston House",-86.01807098499999,33.546863079,76000357,0
"Emanuel AME Church",-88.05146026599992,30.690401077,87000853,0
"Emanuel Building",-88.04152679399991,30.693920135,78000503,0
"Emory School",-87.6966474609999,32.6127880210001,98000109,0
"Empire Building",-86.80666351299992,33.51397323600011,82002040,0
"Enslen House",-86.7833251949999,33.504146576,75000314,0
"Episcopal Church of the Advent",-86.80901336699991,33.5191993710001,83002972,0
"Episcopal Church of the Nativity",-86.5840530399999,34.73019027700011,74000420,0
"Erwin, John, House",-87.59586729799992,32.7034775960001,78000488,0
"Evens--McMullan House",-86.6316604609999,31.823366165,86001797,0
"Everett Building",-86.5860196789999,34.7322317810001,80000709,0
"Exclusive Furniture Shop",-86.7873153689999,33.5115623470001,84000626,0
"Fairfax Historic District",-85.1862098429999,32.7926176000001,99001177,0
"Fairhope Bayfront District",-87.90878649999991,30.5245827630001,88001003,0
"Fairhope Downtown Historic District",-87.9031616839999,30.5227179390001,04000115,0
"Fairhope Plantation",-87.4901377729999,32.447191628,92000630,0
"Farrish, Patrick, House",-87.6174621579999,32.2696266170001,00001026,0
"Faunsdale Plantation",-87.6020016139999,32.4354844470001,93000602,0
"Fayette County Courthouse District",-87.8307930389999,33.684555591,76000326,0
"Fearn, George, House",-88.0836791989999,30.6779212950001,91000855,0
"Federal Building and U.S. Courthouse",-85.39236450199991,31.2251758580001,74000412,0
"Federal Reserve Bank of Atlanta--Birmingham Branch",-86.8108520509999,33.5168113710001,03000230,0
"Fendall Hall",-85.42497032999999,31.89182930600011,70000097,0
"Fire Station No. 10",-86.77412414599991,33.5247917180001,90001556,0
"Fire Station No. 11",-86.8229064939999,33.5249290470001,90001557,0
"Fire Station No. 12",-86.74969482399992,33.5407485960001,90001558,0
"Fire Station No. 15",-86.85340881299992,33.49070358300011,90001559,0
"Fire Station No. 16",-86.89289855999991,33.514362335,90001560,0
"Fire Station No. 19",-86.72760772699992,33.5608711240001,90001561,0
"Fire Station No. 22",-86.7829132079999,33.511806488,90001562,0
"Fire Station No. 3",-86.79021453899991,33.5007858280001,90001554,0
"Fire Station No. 5",-88.04801940899991,30.689939499,83003462,0
"Fire Station No. 6",-86.8140563959999,33.5131759640001,90001555,0
"First African Baptist Church",-87.5700786529999,33.204891929,88001580,0
"First Baptist Church",-87.0174102779999,32.4141578670001,79000383,0
"First Baptist Church",-86.63453674299991,31.831180573,86001799,0
"First Baptist Church",-87.77662604699989,30.8849070790001,88001349,0
"First Baptist Church, East Thomas",-86.8428115839999,33.5222969060001,05000291,0
"First Baptist Church, Kingston",-86.7684478759999,33.53976059000011,05000300,0
"First Christian Church Education Building",-86.80821990999991,33.52117157,80000692,0
"First Congregational Church of Marion",-87.3292922969999,32.6274948120001,82001614,0
"First Ebenezer Baptist Church",-86.82949829099991,33.5112342830001,05000299,0
"First National Bank",-88.0406188959999,30.693447113,78000504,0
"First National Bank",-86.5858138159999,34.7297060970001,74000421,0
"First National Bank Building",-86.4819869999999,31.3076210020001,82002006,0
"First National-John A. Hand Building",-86.8052215579999,33.5139083860001,83002976,0
"First Presbyterian Church",-86.1017379759999,33.4356651310001,83003489,0
"First Presbyterian Church",-86.80603027299991,33.517936707,82001604,0
"First Presbyterian Church",-86.62347412099992,31.8296146390001,86001801,0
"First Presbyterian Church",-87.8900756839999,32.8410949710001,74000411,0
"First Presbyterian Church",-85.7818613419999,33.8146021740001,82001999,0
"First Presbyterian Church Of Wetumpka",-86.2087348969999,32.5394307670001,76000324,0
"First United Methodist Church",-86.21085357699991,32.540370941,73000343,0
"First United Methodist Church",-87.27754211399991,33.8336143490001,85000257,0
"First United Methodist Church",-86.81040191699989,33.5185432430001,82001605,0
"First White House of the Confederacy",-86.3005599979999,32.3763732910001,74000432,0
"Fitch House",-87.58029174799991,33.2055587770001,87001027,0
"Fite, Ernest Baxter, House",-87.99098263399991,34.1334111640001,94001545,0
"Five Mile Creek Bridge",-87.02195802999999,33.3520674200001,73000350,0
"Five Points South Historic District",-86.7953185919999,33.499374119,83002973,0
"Five Points South Historic District (Boundary Increase II)",-86.79673572899991,33.4964630960001,91000593,0
"Five Points South Historic District (Boundary Increase)",-86.79832613799989,33.4977104100001,86001984,0
"Flint River Place",-86.49398803699999,34.7837486270001,82002050,0
"Flintridge Building",-86.9192559659999,33.476056596,04000560,0
"Florence Wagon Works Site",-87.64258755499992,34.80226320200011,96000596,0
"Floyd-Newsome House",-85.0060653689999,32.4816551210001,83004373,0
"Foley Downtown Historic District",-87.6839084999999,30.4069526390001,04001496,0
"Forest Home",-87.0665470589999,34.6118959010001,80000733,0
"Forest Park",-86.76806313499991,33.5140912790001,80000693,0
"Forks of Cypress",-87.72566468699991,34.8449899820001,97001166,0
"Forks of Cypress Cemetery",-87.72195200899991,34.8482042580001,00000140,0
"Forrest Cemetery Chapel and Comfort Station",-86.0259654689999,34.0115733410001,92001069,0
"Fort Conde-Charlotte",-88.0402386869999,30.6884335600001,69000033,0
"Fort Dale--College Street Historic District",-86.6309582839999,31.8328924690001,86001974,0
"Fort Gaines",-88.0752608599999,30.2480401120001,76000348,0
"Fort Harker",-85.84046164899991,34.8621322920001,77000205,0
"Fort McClellan Ammunition Storage Historic District",-85.7769914269999,33.7277688610001,06000981,0
"Fort McClellan Industrial Historic District",-85.79022286499992,33.71786151000001,06000982,0
"Fort McClellan Post Headquarters Historic District",-85.7963643319999,33.717037695,06000983,0
"Fort McClellan World War II Housing Historic District",-85.77652899099991,33.72004438,06000984,0
"Fort Morgan",-88.01844318899991,30.2302213510001,66000146,0
"Fort No. 5",-85.0343557319999,32.4836264070001,76000354,0
"Fort Payne Boom Town Historic District",-85.7197151379999,34.4438934040001,89000308,0
"Fort Payne Main Street Historic District",-85.72375332199989,34.441031991,89000307,0
"Fort Payne Opera House",-85.7194061279999,34.4444503780001,74002262,0
"Fort Payne Residential Historic District",-85.7237613869999,34.44407999,88000444,0
"Fort Sinquefield",-87.7061176709999,31.6612970480001,74000403,0
"Fort Toulouse",-86.25833539600001,32.503722096,66000148,0
"Foscue-Whitfield House",-87.8669836549999,32.4851411490001,74000423,0
"Foster Home/Sylvan Plantation",-87.70256245899991,33.0806413240001,85000451,0
"Foster House",-85.7208938599999,32.143333435,98001021,0
"Fourth Avenue Historic District",-86.81104501799992,33.5154180270001,82002041,0
"Fowler&amp;apos;s Department Store",-86.5866759579999,34.7320536540001,96000597,0
"Fox Building",-86.8094166579999,33.5165159310001,80000694,0
"Francis, Dr. J. C., Office",-85.76216888399991,33.816440582,70000100,0
"Furman Historic District",-86.96712633599989,32.0032620740001,99000249,0
"Gadsden Downtown Historic District",-86.00518886499989,34.01390514900001,97001165,0
"Gadsden Times-News Building",-86.0036392209999,34.0120277400001,83002967,0
"Gainestown Methodist Church and Cemetery",-87.69457790199991,31.4422564210001,99000889,0
"Gainestown Schoolhouse",-87.69255159299992,31.4529137520001,92000033,0
"Gainesville Historic District",-88.1584621629999,32.815404808,85002925,0
"Gaineswood",-87.8352355959999,32.5087242130001,72000167,0
"Garden District",-86.30534333299991,32.3582838760001,84000698,0
"Gaston Building",-87.90502166699991,30.523023605,88001004,0
"Gaston, A.G., Building",-86.81470489499991,33.514953613,00001028,0
"Gaston--Perdue House",-86.6241226199999,31.8304386140001,86001803,0
"Gates-Daves House",-88.0750428439999,30.6871395830001,74000427,0
"Gay House",-86.3052902219999,32.3632278440001,75000325,0
"Geneva Street Historic District",-85.3750340159999,32.642297183,87000981,0
"Georgia Cottage",-88.1002655029999,30.6954593660001,72000170,0
"Gerald-Dowdell House",-86.3035583499999,32.373428345,80000729,0
"Gibbs House",-88.1647216649999,32.8129474290001,85002926,0
"Gilchrist House",-87.3563785729999,33.6343957970001,72000188,0
"Girard High School",-85.0038959609999,32.4607801060001,83003480,0
"Girard Historic District",-85.00162096999991,32.462637966,83003481,0
"Gleissner, John D. and Katherine, Lustron House",-86.7789004969999,33.4909395710001,00000133,0
"Glen Addie Volunteer Hose Company Fire Hall",-85.8369369509999,33.649307251,85002738,0
"Glen Iris Park Historic District",-86.81130594199991,33.489459803,84000628,0
"Glenn-Thompson Plantation",-85.15160990300001,32.1367952450001,80000735,0
"Glennville Historic District",-85.1692204419999,32.110632647,79000402,0
"Glenville",-87.9057617189999,32.8385009770001,82002019,0
"Glenwood Terrace Residential Historic District",-85.8168637889999,33.654456757,85002867,0
"Glover Mausoleum",-87.8497580559999,32.5151442820001,74000424,0
"Glover, Henry Burt, House",-85.82493591299991,33.6587715150001,85002868,0
"Golden, C.S., House",-87.6220626829999,32.2731819150001,00001029,0
"Golf, Gun &amp; Country Club",-87.89447784399989,30.52202034,88001002,0
"Goode-Hall House",-87.39002701199991,34.7253761330001,74000418,0
"Goodwin--Hamilton House",-86.4130355409999,33.117707313,86002041,0
"Gorgas-Manly Historic District",-87.54598428199991,33.2124775110001,71000108,0
"Gorman, Dr. J. A., House",-85.5935643699999,34.578018199,96000045,0
"Government Street Presbyterian Church",-88.0441513059999,30.689153671,92001885,0
"Governor&amp;apos;s Club",-87.7766418459999,30.3973255160001,00001031,0
"Governor&amp;apos;s Mansion",-86.30692291299989,32.361980438,72000172,0
"Grace Episcopal Church",-85.8249816889999,33.657249451,85002869,0
"Grace Episcopal Church",-85.4498792199999,31.877368936,95001116,0
"Grace Episcopal Church",-86.0971586689999,32.3551070780001,82002067,0
"Gragg Field Historic District",-86.6096249299999,32.8494189070001,04000557,0
"Grand Bay Historic District",-88.3423733949999,30.4764180220001,90000918,0
"Gray, Rev. John H., House",-87.9010314939999,32.8498687740001,82002020,0
"Graydon House",-86.6187515259999,31.8304519650001,86001805,0
"Green Street Historic District",-87.32461134499989,32.6319454150001,79000400,0
"Green, Jacob, House",-86.1173651189999,33.886002358,80004238,0
"Greene County Courthouse",-87.8869909419999,32.8412465530001,71000098,0
"Greene County Courthouse Square District",-87.88795505899991,32.840418878,79000385,0
"Greene, Ernest Edward, House",-86.83788299599991,34.1796531680001,92001828,0
"Greene-Marston House",-88.0878067019999,30.6861019130001,83002966,0
"Greensboro Historic District",-87.6012810699999,32.704155369,76000328,0
"Greenville City Hall",-86.6228535399999,31.8300989460001,86001807,0
"Greenville Public School Complex",-86.6263198849999,31.8321552280001,86001811,0
"Greenwood",-85.8800030379999,33.7727211920001,89000162,0
"Grey Columns",-85.6963653559999,32.4262084960001,80000364,0
"Grove Hill Courthouse Square Historic District",-87.7774418369999,31.7091678410001,98000410,0
"Guild-Verner House",-87.5599517819999,33.2119903560001,73000374,0
"Gulf, Mobile, and Ohio Passenger Terminal",-88.0456921709999,30.7003903230001,75000323,0
"Gullett, Benjamin D., House",-87.8927383419999,32.8421859740001,82002021,0
"Gunn, Charles, House",-86.0143051149999,34.0140609740001,93000052,0
"Guntersville City School",-86.30212402299991,34.350940704,03001135,0
"Gurley Historic District",-86.37366596599991,34.699979398,04000562,0
"Hain, H. Bruce, House",-86.98716024699991,32.2882416070001,01001295,0
"Hale, Stephen Fowler, House",-87.89020538299991,32.8369903560001,82002022,0
"Half-Chance Bridge",-87.69974590299999,32.3110213080001,72000166,0
"Halsey Grocery Warehouse",-86.58807372999991,34.7331695560001,80000710,0
"Halsey, W. L., Warehouse",-86.58804321299991,34.7331848140001,80000711,0
"Hamner House",-87.7076347299999,30.3188079070001,88002811,0
"Hanover Court Apartments",-86.7854537959999,33.5038490300001,88000446,0
"Hanover Place Historic District",-86.7865487459999,33.506367604,03001132,0
"Hartselle Downtown Commercial Historic District",-86.9340991349999,34.4434275390001,99000469,0
"Hatch House",-87.62864263099991,32.723244127,91001483,0
"Hatch, Alfred, Place at Arcola",-87.76667511299991,32.5656169110001,87001784,0
"Hawthorn House",-88.0885620119999,30.6993427280001,84000671,0
"Hawthorn House",-86.9866893349999,31.8744141960001,85000452,0
"Hawthorne",-87.69988816199989,32.514082805,94000694,0
"Hawthorne--Cowart House",-86.6323165889999,31.8227005000001,86001853,0
"Heaviest Corner on Earth",-86.80597532899991,33.514526264,85001502,0
"Helena Historic District",-86.8448269769999,33.295931522,06000278,0
"Henderson National Bank",-86.5864334109999,34.7310447690001,80000712,0
"Henry House",-87.31837254999992,32.610230012,86002744,0
"Henry, Albert G., Jr., House",-86.2914886469999,34.3607902530001,89000291,0
"Henry, Charles B., Barn",-85.76691852699992,33.7867670150001,97001168,0
"Henry-Jordan House",-86.2912902829999,34.36101150500011,79003351,0
"Herzfeld, Reuben, House",-85.9476623539999,32.9471244810001,95001023,0
"Highland Avenue Historic District",-86.7831170639999,33.5051981080001,77000206,0
"Highland Plaza Apartments",-86.78990173299989,33.501937866,84000630,0
"Hightower Brothers Livery Stable",-86.2546817649999,33.1727571600001,97000650,0
"Hill, Hugh Wilson, House",-88.09578155999991,33.2625972420001,89000292,0
"Hillside Cemetery",-85.8177257709999,33.6576666510001,85002870,0
"Hinson House",-86.62889862099992,31.83204269400011,86001854,0
"Holland, Thomas, House",-87.2033242799999,34.59732476,91001478,0
"Hollywood Historic District",-86.7815762849999,33.479931272,02000482,0
"Holman, J. D., House",-85.6344375609999,31.4595222470001,82002007,0
"Hood, Col. O. R., House",-86.0137481689999,34.0140571590001,86001000,0
"Horseshoe Bend National Military Park",-85.72509363899989,32.9694111780001,66000060,0
"Horst, Martin, House",-88.0462493899999,30.6896724700001,71000103,0
"Horton Mill Covered Bridge",-86.4486107759999,34.016214517,70000099,0
"Hotel Redmont",-86.8066177369999,33.5188064580001,83002974,0
"Hotel Russel Erskine",-86.5868377689999,34.73110199000011,80000713,0
"House at 308 South Street",-86.6275482179999,31.831256866,86001856,0
"Houston Jail",-87.25772813899989,34.1414236560001,75000331,0
"Houston, George S., Historic District",-86.9727988749999,34.80639143400001,89000943,0
"Houston, Governor George Smith, House",-86.97435760499991,34.8035583500001,86001043,0
"Howard College Estates Historic District",-86.7161979109999,33.55606878100011,99000467,0
"Howard, John W., House and Outbuildings",-86.45899589299999,31.7500241600001,92001090,0
"Huger, Richard P., House",-85.82843780499989,33.6691284180001,85002871,0
"Humphreys, David C., House",-86.59172058099991,34.7286071780001,77000211,0
"Hundley House",-86.58453369099991,34.7286300660001,78000497,0
"Hundley Rental Houses",-86.5836870589999,34.7290676010001,80000714,0
"Hundley Rental Houses",-86.5839605759999,34.7289783570001,80000714,0
"Hunter House",-88.0485839839999,30.6907405850001,85000446,0
"Huntingdon College Campus Historic District",-86.28491726599991,32.349996644,00000138,0
"Hurt, Joel, House",-85.4106317509999,32.240355192,05000834,0
"Hutchens, Terry, Building",-86.5866928099999,34.7312164310001,80000715,0
"Hutchens, W. T., Building",-86.5864944459999,34.731143951,83004374,0
"Ice House",-87.2900390629999,34.4821853640001,00000712,0
"Icehouse Historic District",-87.0320747139999,32.4106580360001,90000886,0
"Ideal Department Store Building",-86.80715942399991,33.513885498,85000918,0
"Idlewild",-86.04568973400001,33.5104702570001,93001012,0
"Inzer House",-86.2552677149999,33.835667813,73002127,0
"Ivy Green",-87.70670718299991,34.7396773920001,70000101,0
"Jackson Historic District",-87.8954934299999,31.512202894,97001656,0
"Jackson, Jefferson Franklin, House",-86.29947662399989,32.3734893800001,84000711,0
"Janney Furnace",-86.02064902299991,33.794904225,76000315,0
"Jasper Downtown Historic District",-87.27885286699991,33.83173910000011,04000233,0
"Jefferson County Courthouse",-86.80854034399989,33.5213432310001,82001606,0
"Jefferson Historic District",-87.8968855289999,32.3847379780001,76000342,0
"Jemison House Complex",-86.04567895700001,33.5340011950001,90001507,0
"Jemison, Robert, Servants&amp;apos; House",-87.5640182499999,33.20255661,90001808,0
"Jemison-Vandegraaff House",-87.56512451199991,33.20212936400011,72000185,0
"Johnson, Axil, House",-87.8894271849999,30.5273246770001,97000649,0
"Johnson, John, House",-87.45405627899991,34.7678173450001,86001537,0
"Johnson, Samuel, House",-87.74160836499991,33.2770932160001,02001069,0
"Johnson&amp;apos;s Woods",-87.6931583209999,34.740611931,88000511,0
"Jones, Gov. Thomas G., House",-86.3044967649999,32.3751792910001,78000506,0
"Jones, William C., House",-87.89684295699991,32.8450202940001,82002023,0
"Jossen, Joseph, House",-88.0437393189999,30.6933269500001,92000628,0
"Jude, George, House",-86.58658658499991,34.793824977,00000139,0
"Judson College Historic District",-87.29683077699991,32.638824937,92001825,0
"Julia Street Memorial United Methodist Church",-86.1627044679999,34.2008247380001,99000855,0
"Karsner-Carroll House",-87.67841339099991,34.801521301,70000104,0
"Kate Duncan Smith Daughters of the American Revolution School",-86.2530971719999,34.5335712580001,02000478,0
"Kelly Brothers and Rowe Building",-86.5880966189999,34.733200073,80000716,0
"Kendall Manor",-85.1519470209999,31.89303398100011,72000155,0
"Kennedy House",-85.25051879899991,31.566764832,78000489,0
"Kenworthy Hall",-87.35209668099992,32.635154953,90001318,0
"Kerby House",-87.6871994109999,32.5059437820001,94000697,0
"Kid Alley Residential Historic District",-85.0074893959999,32.4647422140001,83003482,0
"Kiels-McNab House",-85.1545265779999,31.8879912020001,82001996,0
"Kilby House",-85.82173156699992,33.6612358090001,85002872,0
"Kildare-McCormick House",-86.58473205599999,34.7493324280001,82002051,0
"Killcreas House",-87.8565454529999,30.9073210490001,95000556,0
"King House",-86.86418045400001,33.102355248,72000179,0
"King Street Historic District",-86.63019210099991,31.8289205570001,86001971,0
"Kirkbride House",-88.0396347049999,30.688230515,73000363,0
"Kirkpatrick House",-86.31443266699991,31.9528597820001,75000309,0
"Kirkwood",-87.8937606809999,32.8474426270001,76000327,0
"Koger, William, House",-87.8723325509999,34.81934595900011,86001542,0
"Kress Building",-85.8298110959999,33.6586418150001,85002873,0
"Kress Building",-86.58514899299991,34.731597573,80000717,0
"Kress, S. H., and Company Building",-86.80812589199989,33.5158825620001,82002042,0
"Kymulga Mill And Covered Bridge",-86.3002657129999,33.3342954440001,76000356,0
"Lakeview School",-86.7872848509999,33.509620667,77000207,0
"Lakewood Historic District",-86.7123583999999,33.5606328410001,00000710,0
"Lane--Kendrick--Sherling House",-86.6242752079999,31.8297863010001,86001858,0
"Lanford, William, House",-86.6964661219999,34.7168028820001,94000499,0
"Langdale Historic District",-85.1701915549999,32.8119823680001,99001299,0
"Larimore House",-87.66003025499991,34.84684273,74000416,0
"Larmore, Vance C., House",-85.6573429419999,34.530404075,04000232,0
"Lassiter House",-86.80504987899991,32.472396797,97000651,0
"Latham United Methodist Church",-87.8308890549999,31.0984112280001,88001350,0
"Lawler--Whiting House",-86.16870934499991,33.356087604,86001157,0
"Leatherbury, George, House",-88.2511361879999,30.3798858100001,90000917,0
"Lebanon Chapel AME Church",-87.8942401879999,30.5136568090001,88001351,0
"Lee County Courthouse",-85.38052616099991,32.645137129,73000353,0
"Leech-Hauer House",-86.5865020749999,34.7200355530001,78000498,0
"Leeds Downtown Historic District",-86.53911880299999,33.542890861,94001546,0
"Legion Park Bowl",-86.00131127499991,34.008399534,88001581,0
"Leinkauf Historic District",-88.07279567399991,30.6774675130001,87000936,0
"Levy, George, House",-88.08926391599989,30.688217163,91000861,0
"Liberty Hall",-87.33671482799991,31.972190481,84000751,0
"Lincoln School",-86.5842208859999,34.7456893920001,82001608,0
"Lindsey, Martin, House",-88.05924224899989,30.6067008970001,90002176,0
"Little--Stabler House",-86.63107299799989,31.83614349400011,86001861,0
"Loachapoka Historic District",-85.5934475759999,32.6047244600001,73000352,0
"Locust Street Historic District",-87.68177218899992,34.801346622,02001065,0
"Lombardo Building",-86.5881347659999,34.7332458500001,80000718,0
"Looney House",-86.1955504899999,33.8201138890001,74002179,0
"Lore Historic District",-85.1434286759999,31.8968223940001,73000330,0
"Lore, Seth and Irwinton Historic District (Boundary Increase)",-85.14412206099991,31.8928276870001,86001534,0
"Louisville and Nashville Depot",-86.9586241169999,31.43406338800011,75000308,0
"Louisville and Nashville Railroad Depot",-86.8439865109999,34.1790351870001,76000320,0
"Loveman, Joseph, &amp; Loeb Department Store",-86.8078765869999,33.51488494900011,83002971,0
"Lower Commerce Street Historic District",-86.3104141079999,32.3805395720001,79000395,0
"Lower Commerce Street Historic District (Boundary Increase)",-86.30663672299991,32.380987948,86001529,0
"Lower Commerce Street Historic District (Boundary Increase)",-86.3104785079999,32.380458735,82002063,0
"Lower Dauphin Street Commercial District (Boundary Increase II)",-88.0456320849999,30.6909437560001,95000779,0
"Lower Dauphin Street Commercial District (Boundary Increase III)",-88.04580952800001,30.69190778600012,98001027,0
"Lower Dauphin Street Historic District",-88.0465430899999,30.690223603,79000392,0
"Lower Dauphin Street Historic District (Boundary Increase)",-88.04409666999992,30.690883924,82002059,0
"Lower Twentieth Street Residential Historic District",-84.9985188909999,32.47975152,83003483,0
"Lowndes County Courthouse",-86.5786131499999,32.182935801,71000100,0
"Lowndesboro",-86.6030771479999,32.287501132,73000356,0
"Lowry House",-86.58518218999991,34.7466697690001,01001165,0
"Lowther House Complex",-85.0537152299999,32.5431816110001,93000986,0
"Lustron House on Columbiana Road",-86.81917571999991,33.4657363890001,00000131,0
"Luverne Historic District",-86.2647822589999,31.7159862680001,04000926,0
"Lyon-Lamar House",-87.83887481699991,32.516326904,74000425,0
"Lyric Theatre",-85.8298110959999,33.6612281800001,80000681,0
"Macon County Courthouse",-85.6911849979999,32.424415588,78000495,0
"Madison Station Historic District",-86.74753093999991,34.6961602140001,06000185,0
"Magee, Jacob, House",-88.16367971699989,30.8218247830001,88000112,0
"Magnolia Cemetery including Mobile National Cemetery",-88.0625337499999,30.6745832920001,86003757,0
"Magnolia Grove",-87.61099767899989,32.7052810920001,73000345,0
"Main Street Commercial District",-85.3917724139999,31.22383326,83002984,0
"Main Street Historic District",-85.68971296699992,32.4230450590001,84000650,0
"Main--Yankee Street Historic District",-88.15340413199991,32.8224148940001,85002927,0
"Manchester Terrace",-86.7881065969999,33.5121518800001,89000163,0
"Marion Courthouse Square Historic District",-87.31982550199992,32.6351781540001,96000111,0
"Marion Female Seminary",-87.3191951819999,32.6318059440001,73000372,0
"Marshall&amp;apos;s Grove",-87.00639573699991,32.4661425370001,82002010,0
"Martin, James, House",-87.7029952999999,34.8159446720001,81000128,0
"Mason Building",-86.58634948700001,34.731391907,80000719,0
"Maxwell Air Force Base Senior Officer&amp;apos;s Quarters Historic District",-86.3398894729999,32.3811032950001,87002177,0
"May and Cooney Dry Goods Company",-86.5847159099999,34.730829584,80000720,0
"McAdory Building",-86.80511350499999,33.5147053050001,79000388,0
"McAdory, Thomas, House",-86.9607467649999,33.3749771120001,72000161,0
"McBryde-Screws-Tyson House",-86.3156127929999,32.3709259030001,80000730,0
"McCartney-Bone House",-86.4089504489999,34.794264281,77000213,0
"McClellan, Doit W., Lustron House",-87.8951873779999,31.5164585110001,00000136,0
"McCosh Grist Mill",-85.23508818799991,33.1081871710001,76000353,0
"McCrary House",-86.4869922819999,34.844873481,82002052,0
"McGehee-Stringfellow House",-87.67808816099991,32.7520867210001,80000686,0
"McIntosh Log Church",-88.0294886959999,31.2643424270001,74000439,0
"McKee, J.P., Lustron House",-87.89468383799991,31.5157470700001,00000132,0
"McKibbon House",-86.86009216299991,33.0984687810001,01001408,0
"McKinney, Sarah Amanda Trott, House",-87.0048505209999,33.015842928,92000626,0
"McKleroy-Wilson-Kirby House",-85.82685089099991,33.6652221680001,84000597,0
"McLain, Dr. Andrew D., Office and Drug Store",-85.23816748899991,32.5961393960001,83002978,0
"McMahon, John, House",-87.3058473049999,34.668614473,87001454,0
"McMillan House",-87.9118804929999,30.5984573360001,88002812,0
"McMullan--Skinner House",-86.6289062499999,31.8319721220001,86001865,0
"McNab Bank Building",-85.1435412969999,31.8927921440001,71000095,0
"Meaher-Zoghby House",-88.04570007299991,30.6907444000001,84000672,0
"Megginson, Ernest, House",-88.0892715449999,30.689334869,91000860,0
"Mentone Springs Hotel",-85.5902670349999,34.57960323600011,83003445,0
"Meriwether, Dr. Willis, House",-87.89016723599991,32.8379554750001,82002024,0
"Merritt School",-85.5341241069999,32.0749720310001,98000110,0
"Methodist Episcopal Church, South",-87.9091796879999,30.6015911100001,80000679,0
"Metzger House",-88.04723358199991,30.6902122500001,84000675,0
"Middle Bay Light",-88.0179751929999,30.43632162200001,74000429,0
"Midtown Historic District",-88.0788745519999,30.68339938400001,01001293,0
"Miles Memorial College Historic District",-86.90765829099991,33.4815956290001,93001031,0
"Miller-Martin Town House",-85.4519273299999,31.8750034450001,74000399,0
"Miller-O&amp;apos;Donnell House",-88.0563430789999,30.664533615,82002060,0
"Milligan Block",-86.5847154589999,34.7309197610001,80000721,0
"Millwood",-87.7497204499999,32.659497925,89000314,0
"Milner Heights Historic District",-86.78623594399991,33.5022180180001,03001130,0
"Mobile City Hall",-88.04010772699991,30.6899795530001,69000034,0
"Mobile City Hospital",-88.05635833699991,30.6906089780001,70000108,0
"Mobley, Col. Green G., House",-88.16083526599991,32.818367004,82002070,0
"Monte Sano Railroad Workers&amp;apos; House",-86.52442169199991,34.7423553470001,98001019,0
"Montebrier",-86.9030641859999,33.0423523470001,73000331,0
"Monterey Place",-88.07489776599991,30.6840171810001,84000680,0
"MONTGOMERY (snagboat)",-88.2599392249999,33.2256146710001,83003521,0
"Montgomery Hill Baptist Church",-87.7866499159999,31.1630205710001,88001352,0
"Montgomery Union Station and Trainshed",-86.3145174589999,32.3805619490001,73000368,0
"Montgomery Ward--Alabama Power Company Building",-85.8297729489999,33.6598854060001,85002874,0
"Montgomery--Janes--Whittaker House",-86.4519435169999,32.42458969200001,74000396,0
"Montrose Historic District",-87.90050141500001,30.56876451800011,76000310,0
"Moore Store",-87.77947997999992,30.39869308500001,00001027,0
"Mooresville",-86.87761123399991,34.6240270250001,72000165,0
"Mooresville",-86.8835032669999,34.6232211710001,72000165,0
"Morgan, John Tyler, House",-87.02706909199991,32.4133872990001,72000159,0
"Morgan, John, House",-85.5886154169999,33.6406555180001,93000762,0
"Morgan-Curtis House",-85.01829528799991,32.468708038,83003484,0
"Morris Avenue Historic District",-86.80166748999992,33.51484415,73000349,0
"Morris Avenue-First Avenue North Historic District",-86.8015243579999,33.516223928,86000009,0
"Morrison, James Arthur, House",-88.1502304079999,30.6870403290001,91000863,0
"Moulton Courthouse Square Historic District",-87.2916571449999,34.4810732800001,98001026,0
"Moundville",-87.6323677619999,33.0064927350001,66000149,0
"Mount Ararat Baptist Church",-86.9075393679999,33.5184707640001,05000307,0
"Mount Sinai School",-86.5434112549999,32.543956757,01001296,0
"Mount Sterling Methodist Church",-88.1603327859999,32.093474368,86000995,0
"Mount Vernon Arsenal--Searcy Hospital Complex",-88.0285356039999,31.0879090870001,88000676,0
"Mount Zion Baptist Church",-85.8920135499999,33.6499938960001,85002875,0
"Mountain Brook Estates Building",-86.7733993529999,33.4829177860001,03000232,0
"Mt. Zion AME  Zion Church",-86.3210144039999,32.3715057370001,02001066,0
"Murphey, Dr. William E., House",-87.1009356119999,34.645608757,86001547,0
"Murphy High School",-88.0847549439999,30.6829948430001,82001612,0
"Murphy House, The",-86.3092956539999,32.3796806340001,72000173,0
"Murphy, Samuel R., House",-87.9087905879999,32.8586692810001,82002025,0
"Murphy--Collins House",-87.5693229369999,33.2041737930001,92001824,0
"Muscle Shoals Sound Studio",-87.6744384769999,34.7678375240001,06000437,0
"Nabers, Morrow and Sinnige, Building",-86.80575916799999,33.5148867120001,80000695,0
"Nectar Covered Bridge",-86.62618122799999,33.9562392490001,81000124,0
"Nelson House",-87.8310728239999,31.085796314,88002814,0
"Nettles, Isaac, Gravestones",-87.86796546699991,31.3466459140001,00000141,0
"Neutral Buoyancy Space Simulator",-86.67807821700001,34.6538738460001,85002807,0
"Neville House",-88.0439834589999,30.692329407,84000682,0
"New Decatur--Albany Historic District",-86.98512409199989,34.60302132700011,95000810,0
"New Decatur--Albany Historic District (Boundary Increase)",-86.98645782499992,34.6048927310001,99000148,0
"New Decatur--Albany Residential Historic District (Boundary Increase)",-86.9807627709999,34.5977361230001,04000274,0
"New Evergreen Commercial Historic District",-86.9545834889999,31.4336830680001,93001542,0
"New Hope Baptist Church",-87.2607454949999,31.7284406260001,05000646,0
"New Hope Rosenwald School",-85.2854293679999,32.9435766970001,01001297,0
"New Market Historic District",-86.4284946169999,34.9083033860001,04000237,0
"New Market Presbyterian Church",-86.4290847779999,34.9100456240001,88001348,0
"New Market United Methodist Church",-86.42665862999991,34.9074363710001,90000919,0
"New Rising Star Baptist Church",-86.7994842529999,33.5542793270001,05000305,0
"Newman, E.L., Lustron House",-87.6801147459999,34.7700729370001,00000134,0
"Newton, Rev. Thomas, House",-86.3141481039999,33.7543151340001,91001480,0
"Nicholson House",-87.73689604399991,30.292693709,88002813,0
"Nitrate Village No. 1 Historic District",-87.7205369309999,34.742193435,84000603,0
"Noble Cottage",-85.8249435419999,33.655887604,76000313,0
"Noble Hall",-85.465251555,32.6398610040001,72000163,0
"Noble, Samuel, Monument",-85.8267776429999,33.658203836,85002876,0
"Noble--McCaa--Butler House",-85.82021331799992,33.6575355530001,85002877,0
"Nonnenmacher Bakery",-85.83062744099991,33.658432007,85002878,0
"Nonnenmacher House",-85.8313674929999,33.6613006590001,85002879,0
"Norman, Felix Grundy, House",-87.7034988399999,34.7354278560001,84000749,0
"North Central Historic District",-85.9589980279999,32.958789826,05000833,0
"North Lawrence-Monroe Street Historic District",-86.3058191249999,32.37807867600011,84000712,0
"North Main Street Historic District",-85.6944896439999,32.4295802110001,85000445,0
"Northport Historic District",-87.5803974629999,33.219068662,80000736,0
"Northport Historic District (Boundary Increase)",-87.5800332489999,33.2207931650001,04000238,0
"Northside Historic District",-85.3832844679999,32.6512157000001,01001409,0
"Norwood Boulevard Historic District",-86.8009973329999,33.5394666810001,01001166,0
"Oak Grove School",-87.67994904999991,32.546847562,98000108,0
"Oak Hill Cemetery",-86.81662268699991,33.5256727300001,77000208,0
"Oak Hill Historic District",-87.0830902669999,31.9206615880001,98000711,0
"Oak Tree Cottage",-85.8195877079999,33.6548423770001,85002880,0
"Oakey Streak Methodist Episcopal Church",-86.5368421629999,31.552293149,80000680,0
"Oakhurst",-88.2683570879999,32.7794239820001,86003563,0
"Oakleigh",-88.0599288939999,30.6809883120001,71000104,0
"Oakleigh Garden Historic District",-88.06191812099992,30.6822398050001,72000171,0
"Oakleigh Garden Historic District (Boundary Increase)",-88.05779635399991,30.678583039,90002175,0
"Oaks, The",-87.59338288799999,34.674137031,76000319,0
"Oates-Reynolds Memorial Building",-85.5960911549999,31.331012537,74000409,0
"Old Athens, Alabama Main Post Office",-86.9704666139999,34.8023757930001,82002047,0
"Old Brick Presbyterian Church",-87.52435185099991,34.7707632350001,88003078,0
"Old Courthouse",-87.8021163939999,32.3120956420001,74000426,0
"Old Dauphin Way Historic District",-88.0679076589999,30.6895714790001,84000686,0
"Old Jail",-87.90410211699989,33.3212506140001,74000434,0
"Old Main and Church Street Historic District",-85.4818094739999,32.6119301470001,78003194,0
"Old Monroe County Courthouse",-87.33336237099991,31.5279488730001,73000366,0
"Old Natchez Trace (310-2A)",-87.8440444579999,34.9252376650001,76000156,0
"Old Observatory",-87.54930224099991,33.211118936,72000187,0
"Old Pell City Historic District",-86.29414367199991,32.686182666,01001291,0
"Old Rotation",-85.4858265859999,32.59359657,87002390,0
"Old Ship African Methodist Episcopal Zion Church",-86.31195831299991,32.3715820310001,90002177,0
"Old Town Historic District",-87.0259804789999,32.408810079,78000486,0
"Old Town Historic District",-86.58061823899992,34.7354597110001,78000499,0
"Old Town Historic District Boundary Increase and Additional Documentation",-87.0278386629999,32.3994997200001,03001137,0
"Old Tuscaloosa County Jail",-87.57344055199989,33.207286835,79000404,0
"Oliver, Ernest McCarty, House",-85.39774360599991,32.9362471570001,74000402,0
"Opp Commercial Historic District",-86.2551317439999,31.2821599200001,01001164,0
"Opp Cottage",-86.30995112199992,32.3659229460001,76000351,0
"Ordeman-Shaw Historic District",-86.3038876479999,32.3804225160001,71000105,0
"Orlando Apartments",-86.7872161869999,33.4976768490001,90000309,0
"Orrell House",-87.7039776119999,30.3164814280001,88002815,0
"Otey, William Madison, House",-86.5701884999999,34.8361512340001,82002056,0
"Overton Farm",-87.9583772769999,34.38482457,73000344,0
"Owen Plantation House",-86.9834604079999,33.3474500630001,76000330,0
"Owen, Dr. Thomas McAdory, House",-86.95675659199992,33.4027786250001,82002038,0
"Parham Apothecary Building",-86.9134674069999,33.4785728450001,96000595,0
"Park and Bandstand",-88.1579672879999,32.8225441420001,85002929,0
"Parker Memorial Baptist Church",-85.8265686039999,33.6599426270001,85002881,0
"Parker-Reynolds House",-85.8243942259999,33.6517944340001,82001998,0
"Pastorium, Dexter Avenue Baptist Church",-86.2963485719999,32.3731002810001,82002064,0
"Paterson House",-88.0788269039999,30.6785106660001,86001065,0
"Paterson, J. E., House",-88.08923339799991,30.6885910030001,91000859,0
"Patton, Dave, House",-88.06324005099989,30.6992950440001,87000937,0
"Patton, Gov. Robert, House",-87.64257208299992,34.8242120360001,76000335,0
"Payne House",-87.5768154749999,32.6907031890001,94000690,0
"Pea River Power Company Hydroelectric Facility",-86.09333698099989,31.36321385300001,84000602,0
"Peace Baptist Church",-86.8266677859999,33.506961823,05000293,0
"Pearce&amp;apos;s Mill",-87.83720581199989,34.122056484,76000343,0
"Peerless Saloon",-85.8304061889999,33.657119751,85002882,0
"Pell City Downtown Historic District",-86.2843231949999,33.5866236740001,01001169,0
"People&amp;apos;s Supply Company",-87.7508087159999,30.5447425840001,97000096,0
"Pepperman House",-86.30917358400001,32.3710556030001,82002065,0
"Perkins, William, House",-87.88896942099991,32.8379020690001,82002026,0
"Perry Street Historic District",-86.3074229369999,32.3740821550001,71000106,0
"Petty--Roberts--Beatty House",-85.45591735799989,31.884208679,74000400,0
"Pfau-Creighton Cottage",-88.1276626589999,30.6986465450001,84000120,0
"Phelan Park Historic District",-86.80254525799991,33.4934238370001,88003241,0
"Phelps-Jones House",-86.61837768599992,34.7987251280001,82002053,0
"Phillipi House",-88.04537200899991,30.6919498440001,84000689,0
"Phillips Memorial Auditorium",-87.3288192749999,32.625999451,88003243,0
"Pickens County Courthouse",-88.0951286909999,33.261899482,94000441,0
"Pierce, William F., House",-87.8956222529999,32.8409385680001,83003446,0
"Pincus Building",-88.0408477779999,30.6921577450001,76000345,0
"Pine Apple Historic District",-86.9894280959999,31.870589108,99000248,0
"Pinehurst Historic District",-87.5580083669999,33.213416366,86001229,0
"Pippen, Littleberry, House",-87.88773345899992,32.8443908690001,82002027,0
"Pitts&amp;apos; Folly",-87.50811628700001,32.445090635,84000717,0
"Pitts, Samuel R., Plantation",-85.1577954239999,32.1786732410001,92000819,0
"Plattenburg, Wesley, House",-87.0222091669999,32.4139099120001,92001827,0
"Pleasant Hill Presbyterian Church",-86.9082682799999,32.1648846100001,99000465,0
"Point Clear Historic District",-87.9279074079999,30.480125119,88000515,0
"Poole, William, House",-87.6447704939999,32.3496269030001,94000687,0
"Portier, Bishop, House",-88.0446548459999,30.6901264190001,70000109,0
"Post Office Historic District",-86.6245463319999,31.8296077410001,86001968,0
"Powder Magazine",-86.3280539979999,32.3815369280001,73000370,0
"Powell School",-86.80431365999991,33.5214118960001,76000331,0
"Prairie Mission",-87.4279640859999,32.142001135,01001171,0
"Pratt City Carline Historic District",-86.8836082829999,33.532725977,89000118,0
"Pratt School",-86.88085174599991,33.5330085750001,93001591,0
"President&amp;apos;s House, Marion Institute",-87.3205413819999,32.624687195,79000401,0
"President&amp;apos;s Mansion",-87.5463905659999,33.2087865670001,72000186,0
"President&amp;apos;s Mansion, Old",-85.4837493899999,32.6040496830001,03000423,0
"Presley Store",-86.4805755619999,33.7775383000001,83002982,0
"Preuit Oaks",-87.5097455049999,34.6754352830001,86000997,0
"Profile Cotton Mills Historic District",-85.7723431139999,33.8123072910001,06000436,0
"Propulsion and Structural Test Facility",-86.6585512189999,34.6255043230001,85002804,0
"Protestant Children&amp;apos;s Home",-88.0550308229999,30.687948227,73000364,0
"Public Square Historic District",-86.03308201499991,34.6725579960001,82002037,0
"Pugh, Jesse Pickens, Farmstead",-87.83268134099991,31.7059501180001,99000890,0
"Purcell-Killingsworth House",-85.11109433999989,31.29716074,82001616,0
"Quayle, Margaret, Lustron House",-87.5482025149999,33.2003135680001,00000126,0
"Queen City Pool and Pool House",-87.5633713819999,33.2147361720001,92001088,0
"Quinlan Castle",-86.79724884,33.5029945370001,84000632,0
"Railroad Avenue Historic District",-85.3799761959999,32.6472586130001,84000640,0
"Rand Building",-86.58537105400001,34.7308769050001,80000722,0
"Randolph Street Church of Christ",-86.5846862789999,34.7310104370001,80000723,0
"Rather, John Daniel, House",-87.6991958619999,34.7311897280001,82001603,0
"Rawls Hotel",-85.85409545900001,31.3144207000001,80000684,0
"Red Mountain Suburbs Historic District",-86.77486909699989,33.5013229780001,85002719,0
"Redmont Garden Apartments",-86.7793194889999,33.4955132960001,93000761,0
"Redstone Test Stand",-86.66659509499991,34.63274096,76000341,0
"Reed, William, House",-86.6750106809999,33.6176872250001,87001778,0
"Reese, Edwin, House",-87.8901977539999,32.838027954,82002028,0
"Rhea-McEntire House",-86.9849472049999,34.6163215640001,84000715,0
"Rhodes Park",-86.77830157599991,33.506299003,82002043,0
"Rice, Green Pryor, House",-86.7947924189999,34.4763250520001,86001546,0
"Rickwood Field",-86.84256854199991,33.5062259600001,92001826,0
"Ridgely Apartments",-86.8076705929999,33.5200309750001,84000634,0
"Riverdale",-86.86970185199991,32.4340499950001,79000384,0
"Riverview Historic District",-87.03374145799999,32.4028361540001,90000887,0
"Riverview Historic District",-85.14571153200001,32.7873706950001,99001300,0
"Roanoke Downtown Historic District",-85.37469380399992,33.148497352,85003683,0
"Robbins Hotel",-87.20956559999991,31.7359332560001,87000858,0
"Robert Beaty Historic District",-86.9669958379999,34.80031201700011,84000646,0
"Roberts House",-88.1487808229999,30.6859207150001,94000789,0
"Robinson Springs United Methodist Church",-86.3745022869999,32.5153316650001,82002012,0
"Robinson, John, House",-86.5777053829999,34.7580223080001,77000212,0
"Robinson, Judge Elisha, House",-86.2564961679999,33.83483646700011,91000595,0
"Robinson, Mrs. William, House",-86.57440185499991,34.75632095300011,82002054,0
"Rock House, Old",-86.40753064799992,33.3303435450001,06000182,0
"Roebuck Springs Historic District",-86.7045664059999,33.57726457900011,99000149,0
"Rogers Department Store",-87.6760711669999,34.8003845210001,98001025,0
"Rogers, William A., House",-87.9088134769999,32.8586463930001,82002029,0
"Rose, Edward, House",-87.8326339719999,33.687713623,95001020,0
"Rosecrans, Gen. William, Headquarters",-85.8358194219999,34.873269055,78000490,0
"Rosedale Historic District",-86.7942642619999,33.4854099,04000236,0
"Rosedale Park Historic District",-86.78981261799991,33.487909905,04000235,0
"Roseland Plantation",-87.56742269099991,32.4445036230001,93001476,0
"Rosemount",-87.8958736139999,32.658160905,71000099,0
"Rosenbaum House",-87.6803697809999,34.7929861710001,78000492,0
"Russell Cave National Monument",-85.8158357339999,34.973452529,66000150,0
"Russell County Courthouse at Seale",-85.1674598649999,32.2984845930001,74000436,0
"Russell Family Historic District",-85.9619917159999,32.9434087760001,05000839,0
"Sadler House",-87.01451446199989,33.315204022,75000315,0
"Saint Andrew&amp;apos;s Episcopal Church",-86.8087539669999,33.49481964100001,86001959,0
"Saint Francis Xavier Roman Catholic Church",-88.0805435179999,30.70934486400011,91000842,0
"Saint Joseph&amp;apos;s Roman Catholic Church",-88.0537643429999,30.689601898,91000841,0
"Saint Matthew&amp;apos;s Catholic Church",-88.0576934809999,30.6636714940001,91000840,0
"Saint Paul&amp;apos;s Episcopal Chapel",-88.1387710569999,30.698547363,84000123,0
"Saint Paul&amp;apos;s Methodist Episcopal Church",-85.8249816889999,33.6614913940001,85002884,0
"Saint Vincent de Paul",-88.0452575679999,30.6825122830001,91000839,0
"Sand Island Light",-88.0506223199999,30.1878270180001,75000305,0
"Sannoner Historic District",-87.6794587909999,34.8045247220001,76000336,0
"Saratoga Victory Mill",-86.31114196799992,34.3394126890001,84000659,0
"Sardis Baptist Church",-86.8302459719999,33.523807526,05000298,0
"Sardis Baptist Church",-85.7621874779999,32.088501115,01001299,0
"Saturn V Dynamic Test Stand",-86.66114740499999,34.630922351,85002806,0
"Saturn V Space Vehicle",-86.6558015519999,34.7100847,78000500,0
"Sayre Street School",-86.31037139899991,32.3708610530001,82002066,0
"Schiffman Building",-86.5842819319999,34.7302419470001,80000724,0
"School of Organic Education",-87.90150449299991,30.52159246800012,88001010,0
"Schoppert, Phillip, House",-87.88786315899991,32.8418235780001,82002030,0
"Scott Street Firehouse",-86.3032684329999,32.3736495970001,81000133,0
"Scottish Rites Temple",-88.04580688499991,30.6916904450001,84000694,0
"Scottsboro Memphis and Charleston Railroad Depot",-86.03692826999991,34.675023174,98000107,0
"Scott-Yarbrough House",-85.47239553899991,32.6065124400001,75000318,0
"Seaboard Coast Line Railroad Depot",-85.3424830459999,31.353670692,80000687,0
"Seaboard Coastline Depot",-85.85415463999992,31.313231386,74000405,0
"Searcy House",-87.5700607299999,33.2061500550001,75000328,0
"Searcy House",-87.5670623779999,33.2067527770001,84000748,0
"Second Presbyterian Church",-86.8092430569999,33.49748416600001,86002616,0
"Security Bank Building",-85.8298110959999,33.657569885,85002885,0
"Seminary--O&amp;apos;Neal Historic District",-87.6774124919999,34.8056272540001,95000092,0
"Semmes, Raphael, House",-88.0521469119999,30.6867427830001,70000110,0
"Semple House",-86.2994003299999,32.378902435,72000174,0
"Shady Grove Baptist Church",-86.8039855959999,33.559669495,05000297,0
"Shady Grove Methodist Church and Cemetery",-87.0354798949999,34.141508656,02001067,0
"Shapre-Monte House",-85.00137329099989,32.4586563110001,83003485,0
"Shawmut Historic District",-85.1835530929999,32.84027052,99001176,0
"Sheffield Residential Historic District",-87.69935418099992,34.7667546470001,02000481,0
"Shepard, William T., House",-86.2972193059999,31.279067716,73000339,0
"Shepherd Building",-86.3118286129999,32.3759918210001,86001106,0
"Sheppard Cottage",-85.13885664999989,31.891271411,71000096,0
"Shirley, James, House",-87.5785903929999,33.2192115780001,72000183,0
"Shoal Creek Church",-85.5639443079999,33.77564334700011,74000404,0
"Shorter Mansion",-85.1459274289999,31.896223068,72000156,0
"Silk Stocking District",-86.0981863559999,33.431710196,79000403,0
"Siloam Baptist Church",-87.3190307619999,32.631305695,82001615,0
"Sixteenth Street Baptist Church",-86.8145599369999,33.51657486,80000696,0
"Skinner, Marcus Meyer, House",-87.03358459499989,32.4374389650001,87001418,0
"Sledge, Augusta, House",-87.56886526799991,32.5199576140001,94000686,0
"Sloss Blast Furnace Site",-86.7926627519999,33.520547863,72000162,0
"Smith Residential Historic District",-85.0011753869999,32.4799109930001,83003486,0
"Smith, Joseph Riley, Historic District",-86.8405991559999,33.5174619460001,85002898,0
"Smith, Lansing T., House",-85.81976318399991,33.650463104,85002886,0
"Smithfield Historic District",-86.8311992509999,33.511559655,85002899,0
"Smithfield Historic District (Boundary Increase)",-86.83337822299991,33.5094971010001,98001022,0
"Smith--Joseph--Stratton House",-86.3046569819999,32.3740806580001,85000736,0
"Snead Junior College Historic District",-86.1688014279999,34.200746532,99000468,0
"Snellgrove, Thomas A., Homestead",-86.1649957219999,34.201442151,96000167,0
"Snow Hill Normal and Industrial Institute",-87.0325096889999,32.019988663,95000146,0
"Snow Valley Residential Historic District",-85.00787520199989,32.4679951130001,83003487,0
"Snow, Dudley, House",-85.8241348269999,33.61542511,82002000,0
"Sodality Chapel",-88.1407318119999,30.6982822420001,84000122,0
"Somerville Courthouse",-86.79584082299991,34.4751003270001,72000177,0
"South Central Historic District",-85.9507672059999,32.935512815,05000840,0
"South East Lake Historic District",-86.72066971300001,33.5657840040001,97000652,0
"South Greenville Historic District",-86.6217057709999,31.8265047770001,86001965,0
"South Highlands of East Lake Historic District",-86.71414565800001,33.593666537,03001136,0
"South Lafayette Street Creole Cottages",-88.07142358099991,30.6855634030001,76000346,0
"South Perry Street Historic District",-86.3072662389999,32.3765079540001,84000713,0
"South Street Historic District",-86.63005726899991,31.8309320750001,86001972,0
"Southall Drugs",-87.67656707799991,34.80115127600001,80000699,0
"Southern Railroad Depot",-86.53918456999992,33.543994904,83002975,0
"Southern Railway Depot",-86.98644256599989,34.6131935120001,80004470,0
"Southern Railway Depot",-85.61132049599992,33.92477417,84000599,0
"Southern Railway System Depot",-86.5907050159999,34.7345922430001,71000101,0
"Southern Railway Terminal Station",-86.95052337599989,33.401119232,73000348,0
"Southside Historic District",-86.79053816999991,33.5129317050001,05000647,0
"Sparks, Gov. Chauncy, House",-85.14579920399991,31.89460203400011,72000157,0
"Spotswood, Robert L., House",-88.15215301499991,30.691070557,91000854,0
"Spring Hill College Quadrangle",-88.1407318119999,30.6982822420001,73000365,0
"Spring Hill Methodist Church",-85.3395180399999,32.079967347,96000110,0
"Spring Villa",-85.3116277979999,32.5877682280001,78000494,0
"Springville Historic District",-86.4705243299999,33.7759281830001,97000653,0
"St. Andrew&amp;apos;s Church",-87.70142910999991,32.5109800750001,73000347,0
"St. Clair Springs",-86.40483206099989,33.76421967,76002140,0
"St. Francis Street Methodist Church",-88.04407501199999,30.6915206910001,84000690,0
"St. John&amp;apos;s Episcopal Church",-86.3074111939999,32.379753113,75000326,0
"St. John&amp;apos;s-In-The-Prairie",-87.8818010399999,32.6476164080001,75000313,0
"St. Louis Street Missionary Baptist Church",-88.05111694299991,30.6907405850001,76000347,0
"St. Luke AME Church",-86.8101882929999,33.5427436830001,05000296,0
"St. Luke AME Zion Church",-86.7808990479999,33.542938232,05000295,0
"St. Luke&amp;apos;s Episcopal Church",-87.3066287779999,32.321790305,82002008,0
"St. Mark&amp;apos;s Lutheran Church",-87.59870650799992,30.4171709320001,88001353,0
"St. Michael and All Angels Episcopal Church",-85.84327190699992,33.6667467280001,78000483,0
"St. Patrick&amp;apos;s Catholic Church",-87.75290470499991,30.6198541690001,88001354,0
"St. Paul&amp;apos;s Catholic Church",-86.80510662899991,33.51777197600011,82001607,0
"St. Paul&amp;apos;s Episcopal Church",-87.0216903689999,32.4087715150001,75000311,0
"St. Paul&amp;apos;s Episcopal Church",-87.7714193149999,30.401465908,88001355,0
"Starke, Lewis, House",-87.9085693359999,30.6082439420001,90000929,0
"State Bank Building, Decatur Branch",-86.9839401249999,34.613792419,72000176,0
"State Bank Silverhill",-87.7488555909999,30.54552650500012,01001410,0
"State Street A.M.E. Zion Church",-88.0499572749999,30.693756104,78000505,0
"Stay House",-86.3034286499999,32.3695068360001,79000396,0
"Steele-Fowler House",-86.5649414059999,34.74395752,74000422,0
"Steger House",-86.4297866819999,34.7712554930001,82002055,0
"Steiner Bank Building",-86.8038964419999,33.514838679,74000414,0
"Steiner-Lobman and Teague Hardware Buildings",-86.3115450389999,32.3800044900001,79000397,0
"Stephenson House",-87.38768632499991,33.715024896,78000510,0
"Stevenson Historic District",-85.8383056349999,34.8668636930001,78000491,0
"Stevenson Railroad Depot and Hotel",-85.8398412959999,34.8673562590001,76000329,0
"Stewart, Amelia, House",-88.08771514899991,30.6900329590001,92000629,0
"Stewart-Blanton House",-88.1593733849999,33.2554905360001,85001130,0
"Stewartfield",-88.1407318119999,30.6982822420001,84000124,0
"Stiefelmeyer&amp;apos;s",-86.84248352099992,34.1765441890001,83003444,0
"Stockton Methodist Church",-87.8530626379999,31.0158889570001,88001356,0
"Stone Plantation",-86.4251937869999,32.3512229920001,01001411,0
"Stone Street Baptist Church",-88.0517349239999,30.6954441070001,85001749,0
"Stone Street Cemetery",-88.07377098799989,30.7089946120001,91000843,0
"Stonecroft",-86.8201141359999,33.4379730220001,01001290,0
"Street House",-87.89827031099991,30.4645415750001,88002816,0
"Street Manual Training School",-87.06051568899991,32.1121717890001,99000891,0
"Struve-Hay Building",-86.58676147499992,34.7314910890001,80000725,0
"Stuart, Henry, House",-87.8940090199999,30.5566999340001,05000841,0
"Sturdivant Hall",-87.02828979499991,32.4129829410001,73000340,0
"Sulphur Trestle Fort Site",-86.9702355689999,34.9113027050001,73000355,0
"Summerfield District",-87.04602863799991,32.5175187840001,82002011,0
"Summers Plantation",-85.27412414599991,32.6684608460001,91000095,0
"Sumter County Courthouse",-88.1883831859999,32.5820915020001,72000180,0
"Sunnyside Hotel",-87.7819213869999,30.398757935,98000111,0
"Svea Land Company Office",-87.7537849749999,30.5448640010001,85000443,0
"Swann Covered Bridge",-86.60152886099991,33.9974685530001,81000123,0
"Swayne Hall",-86.1175494079999,33.42954954,74002223,0
"Swift Presbyterian Church",-87.62780164999991,30.3755245940001,88001357,0
"Sylacauga Historic Commercial District",-86.2522864259999,33.1706501890001,04000563,0
"Tait--Ervin House",-87.3765958679999,31.97252049800011,95000147,0
"Talladega College Historic District",-86.1140679869999,33.433412069,90001316,0
"Talladega Courthouse Square Historic District",-86.1024863059999,33.4351236460001,72000181,0
"Talladega Courthouse Square Historic District (Boundary Increase)",-86.10555910399999,33.431303599,88000471,0
"Tallassee Commercial Historic District",-85.89239522599992,32.53536447,92000072,0
"Tanglewood",-87.6603217589999,32.8556281960001,73000346,0
"Tannehill Furnace",-87.0729357569999,33.2501221270001,72000182,0
"Tavern, The",-85.1353225709999,31.89278411900011,70000098,0
"Temple Beth-El",-85.82483673099991,33.66110611,85002887,0
"Ten Oaks",-85.76133727999991,33.8101272580001,01001298,0
"Texas, The",-87.9122085569999,30.6012325290001,88002817,0
"The Pines",-85.8223628629999,33.6497744340001,91000594,0
"Theological Building--A.M.E. Zion Theological Institute",-86.61329926799991,31.8151839370001,86001867,0
"Thigpen, Dr. C. A., House",-86.3068771359999,32.3587760930001,77000215,0
"Thomas By--Product Coke Works Historic District",-86.8601190279999,33.5258918440001,95001060,0
"Thomas Historic District",-86.86015729899989,33.52887739,89000119,0
"Thomaston Central Historic District",-87.62541019699999,32.2680646030001,00001023,0
"Thomaston Colored Institute",-87.6301650999999,32.2723884580001,00001024,0
"Thomasville Historic District",-87.7363358929999,31.91289841900001,99000151,0
"Thompson, N. Q. and Virginia M., House",-88.2284331459999,31.0948747350001,89002453,0
"Thornhill",-87.9291910409999,32.688524864,84000618,0
"Thornhill",-86.14095091499991,33.401690504,98000104,0
"Times Building",-86.58525101399989,34.7330407690001,80000726,0
"Todd House",-86.9312302139999,32.6560171,86003665,0
"Townsend Farmhouse",-85.9923033349999,34.7752154620001,05000838,0
"Trinity Episcopal Church",-88.08602142299991,30.6862335210001,90001240,0
"Troy High School",-85.96585082999989,31.8075218200001,84000721,0
"Tschiener House",-88.0615234379999,30.6892929080001,82002061,0
"Tulane Building",-86.2977981569999,32.3720092770001,79000398,0
"Turrentine Historic District",-86.0561112819999,31.0019574020001,05000649,0
"Tuscumbia Historic District",-87.70192074799991,34.73301398300001,85001158,0
"Tuscumbia Landing Site",-87.7252061649999,34.7489649990001,82002002,0
"Twickenham Historic District",-86.5786155479999,34.729726498,73000357,0
"Twin Beach AME Church",-87.90944508199991,30.5012797620001,88001358,0
"Tyler Hill Residential Historic District",-85.82323423299989,33.6515143290001,85002888,0
"Tyson-Maner House",-86.30472564699991,32.37240982100011,79000399,0
"U.S. Courthouse and Post Office",-86.58700140399991,34.7325056480001,81000129,0
"U.S. Marine Hospital",-88.0542907709999,30.691364288,74000428,0
"U.S. Post Office",-85.8297729489999,33.6588745120001,76000314,0
"U.S. Post Office",-85.3772964479999,32.648139954,76000339,0
"U.S. Post Office",-86.81086730999992,33.5168342590001,76000332,0
"U.S. Post Office",-86.00651550299992,34.0144577030001,76000325,0
"U.S. Post Office",-86.2090072629999,34.2679023740001,83002980,0
"U.S. Post Office",-85.48088836699991,32.6082763670001,83002979,0
"U.S. Post Office",-86.0901879529999,34.0214444440001,83002968,0
"U.S. Post Office Building",-87.0217208859999,32.4070091250001,76000322,0
"U.S.S. TECUMSEH",-88.025941412,30.2317871120001,75000306,0
"Uchee Methodist Church",-85.33130148699992,32.3532521320001,97000654,0
"Union Depot and Freight House",-85.8336791989999,33.661182404,85002889,0
"Uniontown Historic District",-87.5166761829999,32.4592729940001,00000137,0
"United States Post Office and Courthouse--Montgomery",-86.31019804499989,32.3753963980001,98000611,0
"University of Montevallo Historic District (Boundary Increase)",-86.86301767399991,33.105781676,90001529,0
"Upper Twentieth Street Residential Historic District",-85.0105059819999,32.4794636270001,83003488,0
"Urguhart House",-86.63684210299991,34.8501654900001,92000034,0
"US Post Office",-87.83768463099992,32.5184135440001,84000657,0
"US Post Office",-87.9051971439999,30.5230522160001,88001001,0
"USS ALABAMA (battleship)",-88.01584566699999,30.6820398230001,86000083,0
"USS DRUM (submarine)",-88.01666659599989,30.6806799460001,86000086,0
"Valley Creek Presbyterian Church",-87.02448696799991,32.470199854,76000323,0
"VanderSys, Arthur, House",-88.0892715449999,30.688589096,91000857,0
"VanderSys, Jacob, House",-88.0892715449999,30.6888999940001,91000862,0
"Vaughan, Iredell P., House",-87.88985443099992,32.8425064090001,82002031,0
"Vaught House",-86.57658386200001,34.7398147580001,81000130,0
"Verbena",-86.5106529109999,32.7544632430001,76002238,0
"Vickers and Schumacher Buildings",-88.0514098619999,30.68843384000011,83003474,0
"Vulcan",-86.79547640599991,33.491779808,76000333,0
"Waldwic",-87.7156854359999,32.4842341550001,94000684,0
"Walker County Hospital",-87.2825469969999,33.8410186770001,85001160,0
"Walker House",-87.9116134639999,30.589660645,88002818,0
"Walker, Joseph M., House",-88.08923339799991,30.6881561280001,91000856,0
"Walker--Klinner Farm",-86.8101560709999,32.7914028580001,87001849,0
"Walnut Street Historic District",-87.67435448499991,34.80601395800011,76000337,0
"Walnut Street Historic District (Boundary Increase II)",-87.67459069099991,34.8081678440001,96000021,0
"Walnut Street Historic District (Boundary Increase II)",-87.67304034199989,34.8057416890001,96000021,0
"Walnut Street Historic District (Boundary Increase)",-87.6734537829999,34.8068395430001,92001836,0
"Ward Nicholson Corner Store",-86.6255569459999,31.8239784240001,86001870,0
"Ward, Dr. H. B., House",-88.3784815169999,32.4281081940001,98001020,0
"Washington County Courthouse",-88.05473035899991,31.5401207890001,97000655,0
"Water Avenue Historic District",-87.01869548799991,32.407142434,72000160,0
"Water Avenue Historic District",-87.0156966209999,32.4072150140001,05000650,0
"Water Tower",-87.69091007499991,34.8247587100001,80000700,0
"Waters Building",-86.80338515299991,33.5171378800001,80000697,0
"Watson, Laura, House",-88.15262486500001,32.8141868790001,85002928,0
"Watters, William, House",-86.4117651309999,33.1474764690001,87001652,0
"Watts Building",-86.8066482539999,33.516429901,79000389,0
"Webb, William Peter, House",-87.89179992699991,32.8417968750001,82002032,0
"Weems House",-88.0621109009999,30.6917953490001,82001613,0
"Welch--Averiett House",-86.38987424999991,33.1452785230001,86002044,0
"Wellborn",-85.1397164359999,31.8937283930001,71000097,0
"Wesleyan Hall",-87.6797577349999,34.8089777220001,74000417,0
"West Commerce Street Historic District",-86.62766500299992,31.8292921130001,86001970,0
"West End Hills Missionary Baptist Church",-86.8694152829999,33.4682350160001,05000303,0
"West End Masonic Temple",-86.8543853759999,33.4926872250001,87001417,0
"West Fifteenth Street Historic District",-85.83697430299991,33.6634408820001,91000662,0
"West Marion Historic District",-87.3222674029999,32.6263945790001,92001844,0
"West Park",-86.81337941699989,33.5164588260001,84000636,0
"Westview",-86.9292088469999,34.4981747150001,82002068,0
"Westwood",-87.5145823569999,32.4596784940001,74000433,0
"Westwood (Boundary Increase)",-87.5132757789999,32.4619390890001,84000719,0
"Westwood Plantation(Boundary Increase)",-87.5332519289999,32.4661951850001,84000488,0
"Wetumpka L &amp; N Depot",-86.2113852899999,32.5408005250001,75000312,0
"Whatley Historic District",-87.70504913399991,31.6497006130001,98000409,0
"Wheeler House",-87.5717163089999,33.2066841130001,80000737,0
"Wheeler, Joseph, Plantation",-87.2558840389999,34.6489712270001,77000209,0
"Whilldin Building",-86.806825924,33.5193982060001,82002044,0
"White Avenue Historic District",-87.9010286099999,30.5197188930001,88001009,0
"White Bluff",-87.8451531769999,32.5202359180001,70000106,0
"White, Asa, House",-87.89100646999989,32.8423728940001,82002033,0
"White-Turner-Sanford House",-86.58224487299989,34.7256240840001,84000655,0
"Whitman, Edward Fenns, House",-86.16394805899991,34.2008285520001,97001163,0
"Whitman-Cobb House",-86.4285810199999,34.9037319350001,82002057,0
"Whittier Hall",-87.9060821529999,30.524436951,85000442,0
"Wikle Drug Company",-85.8298110959999,33.6573486330001,85002890,0
"Wilcox County Courthouse Historic District",-87.28932744999992,31.991253187,79000405,0
"Wilcox Female Institute",-87.29613964799999,31.99293357400011,75000330,0
"Williamson, James Spullock, House",-86.4515299979999,32.0249687620001,88003123,0
"Wills, William B., House",-87.8952560419999,32.8469276430001,83002969,0
"Wilson Dam",-87.62716455299992,34.801144321,66000147,0
"Wilson Park Houses",-87.67521354899991,34.80410649,79000390,0
"Wilson, Catlin, House",-87.8901748659999,32.8374786380001,82002034,0
"Wilson-Clements House",-87.57752227799992,33.2282257080001,85000737,0
"Wilson-Finlay House",-87.6912939799999,31.4536423320001,78000484,0
"Wimberly-Thomas Warehouse",-86.80649566699989,33.51056289700011,85002718,0
"Windham Construction Office Building",-86.8278274539999,33.513912201,84000638,0
"Winston County Courthouse",-87.4022310319999,34.1468974270001,87001416,0
"Winston Place",-85.6123738709999,34.5686122060001,87000476,0
"Winston, William, House",-87.7011134929999,34.7383119870001,82002005,0
"Winter Building",-86.3094940189999,32.3775596620001,72000175,0
"Winter Place",-86.31513214099991,32.3717613220001,06000439,0
"Winterboro Stagecoach Inn",-86.19654889399992,33.3253698090001,05000651,0
"Withers-Chapman House",-86.55788421599991,34.758823395,78000501,0
"Wood Avenue Historic District",-87.6773561069999,34.8080893590001,78000493,0
"Wood Avenue Historic District (Boundary Increase II)",-87.67423742999991,34.8117768220001,97000656,0
"Wood Avenue Historic District (Boundary Increase)",-87.67674079599991,34.8117268550001,96000020,0
"Woodlands",-87.5733708059999,31.5842363580001,80000683,0
"Woodlane Plantation",-85.17261746199991,31.8498454770001,06000183,0
"Woodlawn City Hall",-86.75236511200001,33.540279388,88000990,0
"Woodlawn Comercial Historic District",-86.7524939689999,33.5402180610001,90002179,0
"Woodlawn Highlands Historic District",-86.7506615719999,33.5369312480001,06000438,0
"Woodlawn Historic District",-86.7574262579999,33.5405074290001,03001129,0
"Woods, Alexander, House",-85.7621231079999,33.8208389280001,87001651,0
"Woodside",-86.87347840699989,34.651635974,82002048,0
"Woodward Building",-86.8066711429999,33.5139350890001,83002977,0
"Wright, Bernice L., Lustron House",-86.7795333859999,33.4913406370001,00000130,0
"Wright, Daniel R., House",-87.8858720929999,32.8426345700001,82002035,0
"Wright--Kilgore House",-86.6147308349999,31.8289222720001,86001873,0
"Wylam Fire Station",-86.9213071379999,33.5049119600001,90001563,0
"Yancey, William Lowndes, Law Office",-86.3073501589999,32.3750762940001,73000371,0
"Yarbrough Hotel",-86.5862370159999,34.732457965,80000727,0
"Yarbrough, Franklin, Jr., Store",-85.1836377109999,32.7110766220001,89000309,0
"Zinszer&amp;apos;s Peter, Mammoth Furniture House",-86.80403347399989,33.51614674600011,80000698,0
"Zurhorst House",-87.90621948199991,30.518976212,88001006,0
"Abernathy, Jessie, House",-91.88189444599991,35.787899731,85002216,0
"Abington, William Thomas, House",-91.87514974899992,35.0746540790001,91001350,0
"Abrams House",-92.2850189209999,34.7479743960001,99000221,0
"Abramson House",-91.1979422769999,34.5916017900001,95001092,0
"Ackins House",-91.9671165419999,35.1919685080001,91001322,0
"Adams-Leslie House",-92.09466950699991,33.520605919,79000433,0
"Adar House",-94.47515847299991,36.4918019520001,87002358,0
"Aday--Stephenson House",-92.62482750799991,35.906296334,93001365,0
"Adler House",-91.6507306529999,35.7692097810001,82000833,0
"Aggie Hall",-92.7809904439999,36.1417266930001,92001115,0
"Aggie Workshop",-92.7809886899999,36.1423577890001,92001113,0
"Agriculture Building--University of Arkansas, Fayetteville",-94.1727463899999,36.0693825280001,92001098,0
"Ahern, Patrick J., House",-94.03884887699989,33.425842285,04001508,0
"Akron Cemetery",-91.44944233499993,35.6649368760001,02001072,0
"Albert Pike Memorial Temple",-92.27059633799991,34.7416921490001,86003118,0
"Alco School",-92.37260654400002,35.8911786200001,92001125,0
"Alden House",-94.2732538989999,36.290080495,87002378,0
"Alderson--Coston House",-92.81015777599991,34.3617668150001,95000657,0
"Alfrey-Brown House",-94.5370025629999,36.174106598,84000003,0
"All Souls Church",-92.0964399239999,34.6989541440001,77000275,0
"Allen Tire Company and Gas Station",-93.38243974499991,33.801507358,01000523,0
"Allen, W. H., House",-93.02377932899989,33.1921620680001,76000395,0
"Allin House",-90.5912628169999,34.5276145940001,73000383,0
"Allinder, Bailey, House",-92.2583084109999,34.7814064030001,02001600,0
"Almer Store",-90.59119415299992,34.531257629,74000488,0
"Altman House",-90.59849548299989,34.529525757,87002497,0
"Altus Well Shed--Gazebo",-93.76223716299991,35.4460812290001,96001005,0
"Amboy Overpass",-92.29166138099991,34.8014223710001,95000608,0
"American Legion Hall",-91.73807051499992,35.2511094910001,91001186,0
"American Legion Hut--Des Arc",-91.49418640099989,34.9759101870001,95000692,0
"American Legion Post No. 121",-93.73414060199993,35.2759308320001,95000758,0
"American Legion Post No. 127 Building",-91.26383140899991,33.110433238,92001350,0
"American Legion Post No. 131",-92.5599775339999,35.8296200920001,93001369,0
"Amis House",-92.41564474899991,33.8111511700001,83003460,0
"Anderson Boarding House",-91.3167548469999,34.6956370770001,84000180,0
"Anderson, Clarence, Barn",-92.2509700859999,35.8889489200001,85002217,0
"Anderson, Dr. A. G., House",-91.26138867799992,33.1093169530001,92000929,0
"Anderson, George, House",-92.28232692699991,35.901041336,85002218,0
"Anderson, H.M., House",-92.3116073609999,34.7511177060001,01000441,0
"Anderson--Hobson Mercantile Store",-94.3970413209999,33.72191619900011,96000642,0
"Andrews, Col. Ralph, House",-91.8868484499999,35.0682830810001,91001253,0
"Anhalt Barn",-93.47961986199989,35.2989383670001,93000087,0
"Applegate Drugstore",-94.11629330599992,36.3327121460001,82002095,0
"Argenta Historic District",-92.26982125399991,34.7590102140001,93000094,0
"Argenta Historic District (Boundary Increase)",-92.2688364499999,34.7604110400001,02000076,0
"Arkadelphia Boy Scout Hut",-93.05445898199992,34.129305134,01001526,0
"Arkadelphia Confederate Monument",-93.05103734299992,34.12025180000011,96000507,0
"Arkansas 11, Old, Kauffman Road Segment",-91.5404824669999,34.3831778140001,06000834,0
"Arkansas 51, Old, Curtis to Gum Springs",-93.1050947799999,34.032906472,03001457,0
"Arkansas 7/51 Bridge",-93.04634349099992,34.1231216180001,05001591,0
"Arkansas Bank &amp; Trust Company",-91.2833786009999,35.60615539600011,86002859,0
"Arkansas City Commercial District",-91.2035327439999,33.6055732090001,99000227,0
"Arkansas City High School",-91.20108032199991,33.6095085140001,84000005,0
"Arkansas County Courthouse--Northern District",-91.55159665699992,34.4999205410001,92001621,0
"Arkansas County Courthouse--Southern District",-91.3349963769999,34.2952709750001,92001620,0
"Arkansas Highway 22, Old",-93.4231864069999,35.2864621910001,03000950,0
"Arkansas Highway 57 Bridge",-93.06957035400001,33.4128716380001,05001078,0
"ARKANSAS II (riverboat)",-92.26138846800001,34.7513756070001,90000899,0
"Arkansas Louisiana Gas Company Building",-92.00369262699989,34.2238044740001,01000480,0
"Arkansas Ordnance Plant Guard House",-92.2320889209999,34.870143323,06000831,0
"Arkansas Post National Memorial",-91.3483869759999,34.0209660800001,66000198,0
"Arkansas Power &amp; Light Building",-92.27394223499991,34.7400889800001,92001156,0
"Arkansas State Capitol",-92.28791046099991,34.7464447020001,74000494,0
"Arkansas Tuberculosis Sanatorium Historic District",-93.91512432499991,35.0966790740001,06000414,0
"Arnold Farmstead",-91.74223192299991,35.255660983,91001187,0
"Ashley-Alexander House",-92.09265021099992,34.7060497910001,76000431,0
"Associated Reformed Presbyterian Church",-92.31075286899991,34.7400970460001,82000874,0
"Atchley, Henry, House",-92.8857808749999,34.0358835770001,83003461,0
"Atkinson-Williams Warehouse",-94.4286346439999,35.3880577090001,79000458,0
"Attwood--Hopson House",-92.2409574969999,33.7597840870001,94000848,0
"Augusta Memorial Park Historic Section",-91.3622908539999,35.2894227790001,03000507,0
"Augusta Presbyterian Church",-91.3651733399999,35.2863006590001,86002873,0
"Averitt House",-93.96428427699991,33.3473523950001,92000958,0
"Avey, John, Barn",-92.26760711099992,35.8990591350001,85002219,0
"Aycock House",-92.74893188499991,35.1514625550001,76000397,0
"Ayers, William, House",-94.41358184799989,35.3898582460001,99000792,0
"Bacon Hotel",-90.73472365699992,35.4800573200001,95001437,0
"Baer House",-92.26850891099991,34.7385826110001,82000876,0
"Bailey House",-92.06192016599989,33.6150970460001,75000375,0
"Baker House",-92.2681006169999,34.758359639,78000627,0
"Baldock House",-91.7402380609999,35.2459927690001,91001239,0
"Bank of Amity, Old",-93.4611830499999,34.265406398,91000690,0
"Bank of Booneville Building",-93.9220046999999,35.14019393900011,78000608,0
"Bank of Carthage",-92.5546287949999,34.0741811450001,82000806,0
"Bank of Clarendon",-91.31443786599991,34.6924934390001,84000183,0
"Bank of Commerce",-92.6638031009999,33.21264267,82002145,0
"Bank of Fayetteville Building, Old",-94.16071319599992,36.062664032,94000144,0
"Bank of Gentry",-94.4828425489999,36.2676973160001,87002416,0
"Bank of Kingston",-93.56786346399991,36.3647880550001,82002122,0
"Bank of Malvern",-92.8136367799999,34.3638381960001,87000425,0
"Bank of Marshall Building",-92.63135253099991,35.909201668,93000974,0
"Bank of Osceola",-89.96697235099991,35.7028694150001,87001352,0
"Bank of Rogers Building",-94.11621856699991,36.3328056340001,80000773,0
"Bank of Searcy",-91.7385864259999,35.250148773,91001228,0
"Banks House",-94.34685321499991,36.432020949,87002365,0
"Bard Springs Bathhouse",-94.0105733379999,34.3907936130001,93001073,0
"Bard Springs Dam No. 1",-94.01155443699993,34.3909658620001,93001074,0
"Bard Springs Dam No. 2",-94.01002948899992,34.3907981040001,93001075,0
"Bard Springs Picnic Shelter",-94.00948672199991,34.3908927610001,93001076,0
"Barham, Elliott and Anna, House",-92.91563415499991,36.284088135,03001453,0
"Bariola Farm",-94.2459025399999,36.180521673,92000096,0
"Barkman, James E. M., House",-93.05699920699992,34.1256675720001,74000467,0
"Barlow Apartments",-92.27249145499989,34.72844696,95000376,0
"Barnett-Attwood House",-92.21863143199991,33.7807490690001,77000247,0
"Barrett--Rogers Building",-91.5810546879999,34.7804031370001,98000881,0
"Bartell, Fred, House",-94.53952789299991,36.18285369900011,87002429,0
"Barth--Hempfling House",-92.26767730699991,34.7582015990001,86002860,0
"Bartlett--Kirk House",-91.6450958249999,35.773948669,94000856,0
"Bartley, Guy, House",-92.5570749529999,35.8339371610001,93001372,0
"Bateman-Griffith House",-91.3111343379999,34.693664551,84000184,0
"Bates School",-94.38144697999989,34.9067291410001,06000081,0
"Bates Tourist Court",-92.63223119999991,35.9109174060001,93000979,0
"Bates, Sherman and Merlene, House",-91.47513473099991,36.3152072760001,02001077,0
"Bates, Sherman, House",-91.47507536399991,36.3153958230001,98001515,0
"Batesville Commercial Historic District",-91.6540661489999,35.772150147,82000834,0
"Batesville Commercial Historic District (Boundary Increase)",-91.65250365099992,35.770996697,90001097,0
"Batesville Confederate Monument",-91.65281079699992,35.7704952710001,96000504,0
"Batesville East Main Historic District",-91.64577096099991,35.7746534700001,83003546,0
"Batesville East Main Historic District (Boundary Increase)",-91.65961072999991,35.7739971460001,96001520,0
"Bathhouse Row",-93.05368394899992,34.5140140620001,74000275,0
"Battery A Site, Battle of Helena",-90.5925721319999,34.5377937680001,92001012,0
"Battery B Site, Battle of Helena",-90.59747687299991,34.5339236940001,92001011,0
"Battery C Site",-90.59410721299992,34.5249592500001,78000615,0
"Battery D",-90.5894287509999,34.5183489140001,74000489,0
"Baxter County Courthouse",-92.3847752329999,36.3352602040001,95000658,0
"Baynham House",-90.7248648169999,36.4514655880001,78000579,0
"Bayou Meto (Reed&amp;apos;s Bridge) Battlefield",-92.11831031199991,34.845791336,02001627,0
"Beal--Burrow Dry Goods Building",-92.2701721189999,34.7480583190001,87001546,0
"Bean Cemetery",-94.4169912469999,35.9489167120001,94000152,0
"Bear Creek Motel",-93.18204340599992,36.2916278060001,01000175,0
"Bearden Waterworks",-92.61692815199992,33.7276924110001,06000908,0
"Beasley Homestead",-94.13682858699991,36.2199214140001,87002375,0
"Beauchamp, Walter, House",-93.0603561399999,34.5073165890001,94000470,0
"Beaver Bridge",-93.7684669519999,36.471041831,90000730,0
"Beaver Bridge",-93.76848296999989,36.4726644260001,90000730,0
"Bechle Apartment Building",-92.26014709499989,34.7394828800001,78003201,0
"Beebe Jail",-91.8757463059999,35.0711430850001,91001251,0
"Beebe Railroad Station",-91.88026210899992,35.069742186,79000465,0
"Beebe Theater",-91.8793675809999,35.0709962670001,91001265,0
"Beech Street Historic District",-90.59665522500001,34.5272632610001,86003314,0
"Beisel--Mitchell House",-90.49064636200002,36.0562362670001,96001031,0
"Belding--Gaines Cemetery",-92.9792737059999,34.4683740200001,93000089,0
"Bell House",-90.7070693969999,35.8328170780001,76000398,0
"Bell House",-91.74020385699991,35.2460746770001,91001201,0
"Bella Vista Water Tank",-94.24662191899992,36.428692573,92000985,0
"Bellaire Court Historic District",-93.0530588149999,34.5246737850001,04000007,0
"Bellingrath House",-92.0835342409999,34.262935638,94001410,0
"Benton County Courthouse",-94.20813751199999,36.372207642,87002340,0
"Benton County Jail",-94.20880889899991,36.3736648560001,87002334,0
"Benton County National Bank",-94.20960127799991,36.3721003060001,83001156,0
"Bentonville Confederate Monument",-94.2070350289999,36.3719459690001,96000459,0
"Bentonville High School",-94.21250152599991,36.3729820250001,87002339,0
"Bentonville Third Street Historic District",-94.2070528779999,36.3694937690001,93001202,0
"Bentonville Train Station",-94.2089462279999,36.3678970340001,87002337,0
"Bentonville West Central Avenue Historic District",-94.2150226009999,36.3723427730001,92001349,0
"Berger House",-90.70509338399999,35.8325614930001,96001272,0
"Berger-Graham House",-90.70526122999992,35.8291282650001,85003006,0
"Bergman High School",-93.01722784899989,36.3134022940001,92001203,0
"Berry House",-91.88767242399992,35.069473267,91001262,0
"Berry&amp;apos;s, J.C., Dry Goods Store",-92.6815056789999,36.2249430110001,03000468,0
"Berryville Agriculture Building",-93.5760052159999,36.368722006,92001214,0
"Berryville Gymnasium",-93.5760078739999,36.36908260300001,92001215,0
"Berryville Post Office",-93.56715393099999,36.3643150330001,98000922,0
"Bertschy House",-94.21463012699989,36.3776397710001,87002336,0
"Bethel African Methodist Episcopal Church",-92.81651306199991,34.3598976140001,04000496,0
"Bethel African Methodist Episcopal Church",-91.6434478759999,35.7713203430001,86002875,0
"Bethel House",-91.4940032959999,34.97589111300001,82000872,0
"Bethell, Bedford Brown, House",-91.49403381299992,34.974903107,78000619,0
"Bettis, John, House",-91.9049834439999,35.8147987350001,85002220,0
"Beyerlein House",-92.2767105099999,34.7358818050001,82000878,0
"Big Botton Slough Bridge",-91.47716769499991,35.6721244450001,04001042,0
"Big Flat School Gymnasium",-92.40467680199993,36.0028681150001,93001255,0
"Big Four School",-91.64273735799991,35.3455586370001,91001192,0
"Big Piney Creek Bridge",-93.23622130999991,35.677142013,90000506,0
"Big Piney Creek Bridge",-93.2346745159999,35.6772352020001,90000506,0
"Bigelow Methodist Episcopal Church, South",-92.6303291189999,34.999323851,96000353,0
"Bigelow Rosenwald School",-92.5652944509999,35.0751421880001,04000491,0
"Bird Kiln",-92.6767869939999,34.127412796,75000381,0
